station_id,num_bikes_available,num_bikes_available_types,num_bikes_disabled,num_docks_available,num_docks_disabled,is_installed,is_renting,is_returning,last_reported,is_charging_station,status,name,capacity,lat,lon,timestamp_consulta,ult_reporte,delta_ultimo_reporte,sospechosa
2,0,"{'mechanical': 0, 'ebike': 0}",0,20,0,1,1,1,1568786326,False,IN_SERVICE,002 - Retiro I,20,-34.59242329999999,-58.37471510000001,2019-09-18 03:01:56.945040-03:00,2019-09-18 02:58:46,3,False
3,1,"{'mechanical': 1, 'ebike': 0}",5,14,0,1,1,1,1568786391,False,IN_SERVICE,003 - ADUANA,20,-34.611032,-58.3682604,2019-09-18 03:01:56.945040-03:00,2019-09-18 02:59:51,2,False
4,14,"{'mechanical': 14, 'ebike': 0}",4,2,2,1,1,1,1568786354,False,IN_SERVICE,004 - Plaza Roma,20,-34.6017255,-58.368762800000006,2019-09-18 03:01:56.945040-03:00,2019-09-18 02:59:14,2,False
5,0,"{'mechanical': 0, 'ebike': 0}",3,39,0,1,1,1,1568786424,False,IN_SERVICE,005 - Plaza Italia,42,-34.580549700000006,-58.420954200000004,2019-09-18 03:01:56.945040-03:00,2019-09-18 03:00:24,1,False
6,8,"{'mechanical': 8, 'ebike': 0}",4,8,1,1,1,1,1568786230,False,IN_SERVICE,006 - Parque Lezama,20,-34.628526,-58.369758,2019-09-18 03:01:56.945040-03:00,2019-09-18 02:57:10,4,False
7,0,"{'mechanical': 0, 'ebike': 0}",0,16,0,1,1,1,1568786345,False,IN_SERVICE,007 - OBELISCO,16,-34.606497999999995,-58.381098,2019-09-18 03:01:56.945040-03:00,2019-09-18 02:59:05,2,False
8,1,"{'mechanical': 1, 'ebike': 0}",0,23,1,1,1,1,1568786316,False,IN_SERVICE,008 - Congreso,24,-34.6094218,-58.3893364,2019-09-18 03:01:56.945040-03:00,2019-09-18 02:58:36,3,False
9,1,"{'mechanical': 1, 'ebike': 0}",1,21,0,1,1,1,1568786239,False,IN_SERVICE,009 - Parque Las Heras,24,-34.585443,-58.407741,2019-09-18 03:01:56.945040-03:00,2019-09-18 02:57:19,4,False
11,0,"{'mechanical': 0, 'ebike': 0}",4,16,0,1,1,1,1568786320,False,IN_SERVICE,011 - Tribunales,20,-34.601176200000005,-58.3850791,2019-09-18 03:01:56.945040-03:00,2019-09-18 02:58:40,3,False
12,0,"{'mechanical': 0, 'ebike': 0}",4,12,0,1,1,1,1568786265,False,IN_SERVICE,012 - Plaza Vicente Lopez,16,-34.5927096,-58.38880699999999,2019-09-18 03:01:56.945040-03:00,2019-09-18 02:57:45,4,False
13,4,"{'mechanical': 4, 'ebike': 0}",1,25,0,1,1,1,1568786426,False,IN_SERVICE,013 - ONCE,30,-34.61009,-58.406000000000006,2019-09-18 03:01:56.945040-03:00,2019-09-18 03:00:26,1,False
14,0,"{'mechanical': 0, 'ebike': 0}",0,30,0,1,1,1,1568786328,False,IN_SERVICE,014 - Pacifico,30,-34.577424,-58.426387,2019-09-18 03:01:56.945040-03:00,2019-09-18 02:58:48,3,False
15,0,"{'mechanical': 0, 'ebike': 0}",0,20,0,1,1,1,1568786284,False,IN_SERVICE,015 - JUANA MANSO II,20,-34.6004,-58.3636706,2019-09-18 03:01:56.945040-03:00,2019-09-18 02:58:04,3,False
17,0,"{'mechanical': 0, 'ebike': 0}",0,20,0,1,1,1,1568786419,False,IN_SERVICE,017 - Plaza Almagro,20,-34.606410100000005,-58.418730599999996,2019-09-18 03:01:56.945040-03:00,2019-09-18 03:00:19,1,False
19,1,"{'mechanical': 1, 'ebike': 0}",0,23,1,1,1,1,1568786437,False,IN_SERVICE,019 - PLAZA SAN MARTIN,24,-34.5956027,-58.3776353,2019-09-18 03:01:56.945040-03:00,2019-09-18 03:00:37,1,False
20,0,"{'mechanical': 0, 'ebike': 0}",1,19,0,1,1,1,1568786316,False,IN_SERVICE,020 - Distrito Audiovisual,20,-34.5798619,-58.44177560000001,2019-09-18 03:01:56.945040-03:00,2019-09-18 02:58:36,3,False
21,1,"{'mechanical': 1, 'ebike': 0}",3,19,0,1,1,1,1568786346,False,IN_SERVICE,021 - Parque Patricios,24,-34.63968320000001,-58.4062115,2019-09-18 03:01:56.945040-03:00,2019-09-18 02:59:06,2,False
22,0,"{'mechanical': 0, 'ebike': 0}",1,19,0,1,1,1,1568786343,False,IN_SERVICE,022 - Arenales,20,-34.5938629,-58.3825498,2019-09-18 03:01:56.945040-03:00,2019-09-18 02:59:03,2,False
23,0,"{'mechanical': 0, 'ebike': 0}",3,9,0,1,1,1,1568786483,False,IN_SERVICE,023 - Suipacha,12,-34.600309499999995,-58.3793463,2019-09-18 03:01:56.945040-03:00,2019-09-18 03:01:23,0,False
24,0,"{'mechanical': 0, 'ebike': 0}",2,16,0,1,1,1,1568786284,False,IN_SERVICE,024 - ALSINA,18,-34.610583,-58.380894299999994,2019-09-18 03:01:56.945040-03:00,2019-09-18 02:58:04,3,False
25,1,"{'mechanical': 1, 'ebike': 0}",3,20,0,1,1,1,1568786297,False,IN_SERVICE,025 - Plaza Guemes,24,-34.5894269,-58.416117799999995,2019-09-18 03:01:56.945040-03:00,2019-09-18 02:58:17,3,False
26,0,"{'mechanical': 0, 'ebike': 0}",0,24,0,1,1,1,1568786275,False,IN_SERVICE,026 - JUANA MANSO I,24,-34.600460600000005,-58.3636593,2019-09-18 03:01:56.945040-03:00,2019-09-18 02:57:55,4,False
27,0,"{'mechanical': 0, 'ebike': 0}",1,15,0,1,1,1,1568786401,False,IN_SERVICE,027 - Montevideo,16,-34.599068,-58.3900887,2019-09-18 03:01:56.945040-03:00,2019-09-18 03:00:01,1,False
28,2,"{'mechanical': 2, 'ebike': 0}",0,18,0,1,1,1,1568786289,False,IN_SERVICE,028 - Plaza Boedo,20,-34.6231273,-58.4127377,2019-09-18 03:01:56.945040-03:00,2019-09-18 02:58:09,3,False
29,2,"{'mechanical': 2, 'ebike': 0}",3,25,0,1,1,1,1568786285,False,IN_SERVICE,029 - Parque Centenario,30,-34.6079414,-58.4335573,2019-09-18 03:01:56.945040-03:00,2019-09-18 02:58:05,3,False
30,0,"{'mechanical': 0, 'ebike': 0}",3,17,1,1,1,1,1568786412,False,IN_SERVICE,030 - Peña,20,-34.5908211,-58.3973698,2019-09-18 03:01:56.945040-03:00,2019-09-18 03:00:12,1,False
31,1,"{'mechanical': 1, 'ebike': 0}",3,16,0,1,1,1,1568786386,False,IN_SERVICE,031 - Padilla,20,-34.6032081,-58.43964570000001,2019-09-18 03:01:56.945040-03:00,2019-09-18 02:59:46,2,False
32,0,"{'mechanical': 0, 'ebike': 0}",1,15,0,1,1,1,1568786439,False,IN_SERVICE,032 - Catedral,16,-34.60720739999999,-58.37359839999999,2019-09-18 03:01:56.945040-03:00,2019-09-18 03:00:39,1,False
33,0,"{'mechanical': 0, 'ebike': 0}",4,16,0,1,1,1,1568786345,False,IN_SERVICE,033 - Facultad de Medicina,20,-34.5970909,-58.3989807,2019-09-18 03:01:56.945040-03:00,2019-09-18 02:59:05,2,False
36,0,"{'mechanical': 0, 'ebike': 0}",1,15,0,1,1,1,1568786411,False,IN_SERVICE,036 - MAIPÚ,16,-34.6045481,-58.3767677,2019-09-18 03:01:56.945040-03:00,2019-09-18 03:00:11,1,False
38,3,"{'mechanical': 3, 'ebike': 0}",2,15,0,1,1,1,1568786252,False,IN_SERVICE,038 - Plaza Libertad,20,-34.59704970000001,-58.38284029999999,2019-09-18 03:01:56.945040-03:00,2019-09-18 02:57:32,4,False
39,0,"{'mechanical': 0, 'ebike': 0}",3,17,0,1,1,1,1568786233,False,IN_SERVICE,039 - CONGRESO II,20,-34.6092213,-58.38769250000001,2019-09-18 03:01:56.945040-03:00,2019-09-18 02:57:13,4,False
40,1,"{'mechanical': 1, 'ebike': 0}",0,15,0,1,1,1,1568786456,False,IN_SERVICE,040 - Sarmiento,16,-34.604461,-58.373499,2019-09-18 03:01:56.945040-03:00,2019-09-18 03:00:56,1,False
41,0,"{'mechanical': 0, 'ebike': 0}",1,19,0,1,1,1,1568786240,False,IN_SERVICE,041 - Urquiza y Rondeau,20,-34.6364511,-58.4076348,2019-09-18 03:01:56.945040-03:00,2019-09-18 02:57:20,4,False
42,1,"{'mechanical': 1, 'ebike': 0}",1,22,0,1,1,1,1568786332,False,IN_SERVICE,042 - Diagonal Norte,24,-34.604447,-58.38003248,2019-09-18 03:01:56.945040-03:00,2019-09-18 02:58:52,3,False
43,0,"{'mechanical': 0, 'ebike': 0}",1,15,0,1,1,1,1568786353,False,IN_SERVICE,334 - CENTRO DE EXPOSICIONES,16,-34.583918,-58.3900194,2019-09-18 03:01:56.945040-03:00,2019-09-18 02:59:13,2,False
44,1,"{'mechanical': 1, 'ebike': 0}",0,19,0,1,1,1,1568786487,False,IN_SERVICE,044 - Ecoparque,20,-34.5755148,-58.413882900000004,2019-09-18 03:01:56.945040-03:00,2019-09-18 03:01:27,0,False
45,0,"{'mechanical': 0, 'ebike': 0}",0,20,0,1,1,1,1568786345,False,IN_SERVICE,045 - Uruguay,20,-34.6018635,-58.3866934,2019-09-18 03:01:56.945040-03:00,2019-09-18 02:59:05,2,False
46,2,"{'mechanical': 2, 'ebike': 0}",3,13,0,1,1,1,1568786447,False,IN_SERVICE,046 - Chile,18,-34.6163012,-58.37437489999999,2019-09-18 03:01:56.945040-03:00,2019-09-18 03:00:47,1,False
47,1,"{'mechanical': 1, 'ebike': 0}",1,14,0,1,1,1,1568786250,False,IN_SERVICE,047 - Colegio Nacional de Buenos Aires,16,-34.6117408,-58.3733149,2019-09-18 03:01:56.945040-03:00,2019-09-18 02:57:30,4,False
48,1,"{'mechanical': 1, 'ebike': 0}",0,15,1,1,1,1,1568786287,False,IN_SERVICE,034 - Colonia Express,16,-34.623937,-58.362004000000006,2019-09-18 03:01:56.945040-03:00,2019-09-18 02:58:07,3,False
49,2,"{'mechanical': 2, 'ebike': 0}",3,15,0,1,1,1,1568786237,False,IN_SERVICE,049 - 33 Orientales,20,-34.6290527,-58.422610999999996,2019-09-18 03:01:56.945040-03:00,2019-09-18 02:57:17,4,False
50,0,"{'mechanical': 0, 'ebike': 0}",0,20,0,1,1,1,1568786309,False,IN_SERVICE,050 - Hospital Rivadavia,20,-34.5837348,-58.4010798,2019-09-18 03:01:56.945040-03:00,2019-09-18 02:58:29,3,False
51,0,"{'mechanical': 0, 'ebike': 0}",0,12,0,1,1,1,1568786468,False,IN_SERVICE,051 - TUCUMAN,12,-34.6014776,-58.38212610000001,2019-09-18 03:01:56.945040-03:00,2019-09-18 03:01:08,0,False
52,0,"{'mechanical': 0, 'ebike': 0}",20,0,0,1,1,1,1568786255,False,IN_SERVICE,052 - SANCHEZ DE BUSTAMANTE,20,-34.606682,-58.414851,2019-09-18 03:01:56.945040-03:00,2019-09-18 02:57:35,4,False
53,0,"{'mechanical': 0, 'ebike': 0}",4,16,0,1,1,1,1568786335,False,IN_SERVICE,053 - Ricardo Rojas,20,-34.5952579,-58.374351399999995,2019-09-18 03:01:56.945040-03:00,2019-09-18 02:58:55,3,False
54,0,"{'mechanical': 0, 'ebike': 0}",0,20,0,1,1,1,1568786276,False,IN_SERVICE,054 - Acuña de Figueroa,20,-34.598118299999996,-58.42198440000001,2019-09-18 03:01:56.945040-03:00,2019-09-18 02:57:56,4,False
55,0,"{'mechanical': 0, 'ebike': 0}",3,17,0,1,1,1,1568786342,False,IN_SERVICE,055 - Bouchard,20,-34.5994122,-58.36966404,2019-09-18 03:01:56.945040-03:00,2019-09-18 02:59:02,2,False
56,1,"{'mechanical': 1, 'ebike': 0}",1,14,0,1,1,1,1568786330,False,IN_SERVICE,056 - Plaza Palermo Viejo,16,-34.588567,-58.425999,2019-09-18 03:01:56.945040-03:00,2019-09-18 02:58:50,3,False
57,12,"{'mechanical': 12, 'ebike': 0}",1,3,0,1,1,1,1568786282,False,IN_SERVICE,057 - BELGRANO,16,-34.6134468,-58.3706051,2019-09-18 03:01:56.945040-03:00,2019-09-18 02:58:02,3,False
58,0,"{'mechanical': 0, 'ebike': 0}",1,19,0,1,1,1,1568786227,False,IN_SERVICE,058 - Ministro Carranza,20,-34.575277299999996,-58.43468829999999,2019-09-18 03:01:56.945040-03:00,2019-09-18 02:57:07,4,False
59,1,"{'mechanical': 1, 'ebike': 0}",5,14,0,1,1,1,1568786259,False,IN_SERVICE,018 - Independencia,20,-34.617771000000005,-58.3804546,2019-09-18 03:01:56.945040-03:00,2019-09-18 02:57:39,4,False
60,0,"{'mechanical': 0, 'ebike': 0}",2,18,0,1,1,1,1568786461,False,IN_SERVICE,060 - 25 De Mayo,20,-34.601650899999996,-58.371079,2019-09-18 03:01:56.945040-03:00,2019-09-18 03:01:01,0,False
62,2,"{'mechanical': 2, 'ebike': 0}",0,18,0,1,1,1,1568786416,False,IN_SERVICE,062 - Córdoba,20,-34.5985102,-58.376850100000006,2019-09-18 03:01:56.945040-03:00,2019-09-18 03:00:16,1,False
63,0,"{'mechanical': 0, 'ebike': 0}",6,14,0,1,1,1,1568786455,False,IN_SERVICE,063 - Reconquista,20,-34.5987657,-58.3728605,2019-09-18 03:01:56.945040-03:00,2019-09-18 03:00:55,1,False
64,0,"{'mechanical': 0, 'ebike': 0}",3,17,0,1,1,1,1568786379,False,IN_SERVICE,064 - RIOBAMBA,20,-34.5936508,-58.394108700000004,2019-09-18 03:01:56.945040-03:00,2019-09-18 02:59:39,2,False
65,1,"{'mechanical': 1, 'ebike': 0}",0,19,0,1,1,1,1568786319,False,IN_SERVICE,065 - Julián Álvarez,20,-34.5873124,-58.415787300000005,2019-09-18 03:01:56.945040-03:00,2019-09-18 02:58:39,3,False
66,1,"{'mechanical': 1, 'ebike': 0}",6,13,0,1,1,1,1568786460,False,IN_SERVICE,066 - Billinghurst,20,-34.5945475,-58.4138713,2019-09-18 03:01:56.945040-03:00,2019-09-18 03:01:00,0,False
68,0,"{'mechanical': 0, 'ebike': 0}",1,19,0,1,1,1,1568786258,False,IN_SERVICE,068 - Rivarola,20,-34.6065099,-58.385434,2019-09-18 03:01:56.945040-03:00,2019-09-18 02:57:38,4,False
69,0,"{'mechanical': 0, 'ebike': 0}",4,12,0,1,1,1,1568786243,False,IN_SERVICE,069 - Ecuador,16,-34.5961006,-58.4046092,2019-09-18 03:01:56.945040-03:00,2019-09-18 02:57:23,4,False
70,1,"{'mechanical': 1, 'ebike': 0}",3,16,0,1,1,1,1568786323,False,IN_SERVICE,070 - ARAOZ,20,-34.5926862,-58.4260597,2019-09-18 03:01:56.945040-03:00,2019-09-18 02:58:43,3,False
71,1,"{'mechanical': 1, 'ebike': 0}",1,28,0,1,1,1,1568786326,False,IN_SERVICE,071 - CERRITO,30,-34.60266729999999,-58.3833559,2019-09-18 03:01:56.945040-03:00,2019-09-18 02:58:46,3,False
72,1,"{'mechanical': 1, 'ebike': 0}",2,15,0,1,1,1,1568786416,False,IN_SERVICE,072 - Venezuela,18,-34.613542100000004,-58.374663500000004,2019-09-18 03:01:56.945040-03:00,2019-09-18 03:00:16,1,False
73,0,"{'mechanical': 0, 'ebike': 0}",5,11,0,1,1,1,1568786458,False,IN_SERVICE,073 - Ruy Díaz de Guzmán,16,-34.6306814,-58.3718235,2019-09-18 03:01:56.945040-03:00,2019-09-18 03:00:58,0,False
74,1,"{'mechanical': 1, 'ebike': 0}",0,23,0,1,1,1,1568786425,False,IN_SERVICE,074 - INSTITUTO  LELOIR,24,-34.6043825,-58.4346338,2019-09-18 03:01:56.945040-03:00,2019-09-18 03:00:25,1,False
75,3,"{'mechanical': 3, 'ebike': 0}",2,15,0,1,1,1,1568786467,False,IN_SERVICE,075 - Plaza Primero de Mayo,20,-34.612297600000005,-58.39898710000001,2019-09-18 03:01:56.945040-03:00,2019-09-18 03:01:07,0,False
76,1,"{'mechanical': 1, 'ebike': 0}",3,16,1,1,1,1,1568786264,False,IN_SERVICE,076 - Ayacucho,20,-34.6074084,-58.3950548,2019-09-18 03:01:56.945040-03:00,2019-09-18 02:57:44,4,False
77,1,"{'mechanical': 1, 'ebike': 0}",4,15,0,1,1,1,1568786439,False,IN_SERVICE,077 - SARANDI,20,-34.6116273,-58.39473670000001,2019-09-18 03:01:56.945040-03:00,2019-09-18 03:00:39,1,False
78,0,"{'mechanical': 0, 'ebike': 0}",0,20,0,1,1,1,1568786446,False,IN_SERVICE,078 - SUIPACHA Y ARROYO,20,-34.5910737,-58.3799953,2019-09-18 03:01:56.945040-03:00,2019-09-18 03:00:46,1,False
79,0,"{'mechanical': 0, 'ebike': 0}",0,30,0,1,1,1,1568786232,False,IN_SERVICE,079 - AZUCENA VILLAFLOR,30,-34.61189,-58.36393,2019-09-18 03:01:56.945040-03:00,2019-09-18 02:57:12,4,False
80,1,"{'mechanical': 1, 'ebike': 0}",2,13,0,1,1,1,1568786364,False,IN_SERVICE,080 - DOBLAS,16,-34.624435,-58.43037660000001,2019-09-18 03:01:56.945040-03:00,2019-09-18 02:59:24,2,False
82,0,"{'mechanical': 0, 'ebike': 0}",2,18,0,1,1,1,1568786469,False,IN_SERVICE,082 - HOSPITAL ITALIANO,20,-34.6078917,-58.4263947,2019-09-18 03:01:56.945040-03:00,2019-09-18 03:01:09,0,False
83,3,"{'mechanical': 3, 'ebike': 0}",3,14,1,1,1,1,1568786248,False,IN_SERVICE,083 - Paraná,20,-34.603269,-58.3893728,2019-09-18 03:01:56.945040-03:00,2019-09-18 02:57:28,4,False
84,3,"{'mechanical': 3, 'ebike': 0}",6,11,1,1,1,1,1568786246,False,IN_SERVICE,084 - Lavalle,20,-34.602320299999995,-58.395514399999996,2019-09-18 03:01:56.945040-03:00,2019-09-18 02:57:26,4,False
85,0,"{'mechanical': 0, 'ebike': 0}",7,13,0,1,1,1,1568786288,False,IN_SERVICE,085 - AGUERO,20,-34.5948057,-58.4091784,2019-09-18 03:01:56.945040-03:00,2019-09-18 02:58:08,3,False
86,4,"{'mechanical': 4, 'ebike': 0}",1,15,0,1,1,1,1568786484,False,IN_SERVICE,086 - SAAVEDRA,20,-34.6212681,-58.401680799999994,2019-09-18 03:01:56.945040-03:00,2019-09-18 03:01:24,0,False
87,2,"{'mechanical': 2, 'ebike': 0}",3,11,1,1,1,1,1568786372,False,IN_SERVICE,087 - Guayaquil,16,-34.619845,-58.4314942,2019-09-18 03:01:56.945040-03:00,2019-09-18 02:59:32,2,False
88,2,"{'mechanical': 2, 'ebike': 0}",1,17,0,1,1,1,1568786463,False,IN_SERVICE,088 - MISIONES,20,-34.612575,-58.40435600000001,2019-09-18 03:01:56.945040-03:00,2019-09-18 03:01:03,0,False
89,0,"{'mechanical': 0, 'ebike': 0}",0,20,0,1,1,1,1568786305,False,IN_SERVICE,089 - Cabello,20,-34.5825475,-58.405667099999995,2019-09-18 03:01:56.945040-03:00,2019-09-18 02:58:25,3,False
90,1,"{'mechanical': 1, 'ebike': 0}",4,15,0,1,1,1,1568786428,False,IN_SERVICE,090 - GUTIERREZ,20,-34.5866324,-58.39987489999999,2019-09-18 03:01:56.945040-03:00,2019-09-18 03:00:28,1,False
91,2,"{'mechanical': 2, 'ebike': 0}",3,15,1,1,1,1,1568786377,False,IN_SERVICE,091 - Pasco,20,-34.6174482,-58.397602,2019-09-18 03:01:56.945040-03:00,2019-09-18 02:59:37,2,False
92,1,"{'mechanical': 1, 'ebike': 0}",0,19,0,1,1,1,1568786443,False,IN_SERVICE,092 - Salcedo,20,-34.6316444,-58.40533860000001,2019-09-18 03:01:56.945040-03:00,2019-09-18 03:00:43,1,False
93,4,"{'mechanical': 4, 'ebike': 0}",0,16,0,1,1,1,1568786258,False,IN_SERVICE,093 - CARLOS CALVO,20,-34.620798,-58.3944635,2019-09-18 03:01:56.945040-03:00,2019-09-18 02:57:38,4,False
94,0,"{'mechanical': 0, 'ebike': 0}",1,29,0,1,1,1,1568786418,False,IN_SERVICE,094 - GÚZMAN,30,-34.591511,-58.449652,2019-09-18 03:01:56.945040-03:00,2019-09-18 03:00:18,1,False
95,0,"{'mechanical': 0, 'ebike': 0}",5,11,0,1,1,1,1568786261,False,IN_SERVICE,095 - ESMERALDA,16,-34.60211210000001,-58.37816779999999,2019-09-18 03:01:56.945040-03:00,2019-09-18 02:57:41,4,False
96,0,"{'mechanical': 0, 'ebike': 0}",0,20,0,1,1,1,1568786272,False,IN_SERVICE,096 - Carlos Gardel,20,-34.6027814,-58.4116586,2019-09-18 03:01:56.945040-03:00,2019-09-18 02:57:52,4,False
98,0,"{'mechanical': 0, 'ebike': 0}",3,13,0,1,1,1,1568786351,False,IN_SERVICE,098 - Belgrano y roca,16,-34.6127689,-58.3769407,2019-09-18 03:01:56.945040-03:00,2019-09-18 02:59:11,2,False
99,1,"{'mechanical': 1, 'ebike': 0}",2,17,0,1,1,1,1568786285,False,IN_SERVICE,099 - Malabia,20,-34.596096100000004,-58.435407999999995,2019-09-18 03:01:56.945040-03:00,2019-09-18 02:58:05,3,False
101,0,"{'mechanical': 0, 'ebike': 0}",0,20,0,1,1,1,1568786287,False,IN_SERVICE,101 - Fitz Roy,20,-34.5891857,-58.4424397,2019-09-18 03:01:56.945040-03:00,2019-09-18 02:58:07,3,False
102,0,"{'mechanical': 0, 'ebike': 0}",1,11,0,1,1,1,1568786306,False,IN_SERVICE,102 - ROSETI,12,-34.5864287,-58.445819900000004,2019-09-18 03:01:56.945040-03:00,2019-09-18 02:58:26,3,False
104,2,"{'mechanical': 2, 'ebike': 0}",0,28,0,1,1,1,1568786262,False,IN_SERVICE,104 - Federico Lacroze,30,-34.587617,-58.455212,2019-09-18 03:01:56.945040-03:00,2019-09-18 02:57:42,4,False
105,0,"{'mechanical': 0, 'ebike': 0}",1,15,0,1,1,1,1568786263,False,IN_SERVICE,105 - 15 DE NOVIEMBRE,16,-34.6340844,-58.4008662,2019-09-18 03:01:56.945040-03:00,2019-09-18 02:57:43,4,False
106,1,"{'mechanical': 1, 'ebike': 0}",2,17,2,1,1,1,1568786459,False,IN_SERVICE,106 - RINCÓN,20,-34.6152509,-58.3958827,2019-09-18 03:01:56.945040-03:00,2019-09-18 03:00:59,0,False
107,0,"{'mechanical': 0, 'ebike': 0}",1,15,0,1,1,1,1568786379,False,IN_SERVICE,107 - HOSPITAL GARRAHAN,16,-34.630373999999996,-58.395852000000005,2019-09-18 03:01:56.945040-03:00,2019-09-18 02:59:39,2,False
110,0,"{'mechanical': 0, 'ebike': 0}",3,17,0,1,1,1,1568786413,False,IN_SERVICE,110 - Guardia Vieja,20,-34.601738,-58.415434,2019-09-18 03:01:56.945040-03:00,2019-09-18 03:00:13,1,False
111,0,"{'mechanical': 0, 'ebike': 0}",0,30,0,1,1,1,1568786399,False,IN_SERVICE,111 - MACACHA GUEMES,30,-34.605487700000005,-58.364685800000004,2019-09-18 03:01:56.945040-03:00,2019-09-18 02:59:59,1,False
112,0,"{'mechanical': 0, 'ebike': 0}",0,16,0,1,1,1,1568786236,False,IN_SERVICE,112 - 9 de Julio,16,-34.612075,-58.380384,2019-09-18 03:01:56.945040-03:00,2019-09-18 02:57:16,4,False
114,0,"{'mechanical': 0, 'ebike': 0}",2,28,0,1,1,1,1568786446,False,IN_SERVICE,114 - DELLA PAOLERA,30,-34.5949745,-58.3722554,2019-09-18 03:01:56.945040-03:00,2019-09-18 03:00:46,1,False
115,4,"{'mechanical': 4, 'ebike': 0}",3,9,0,1,1,1,1568786474,False,IN_SERVICE,115 - QUINTANA,16,-34.587800099999995,-58.39083620000001,2019-09-18 03:01:56.945040-03:00,2019-09-18 03:01:14,0,False
116,2,"{'mechanical': 2, 'ebike': 0}",2,8,1,1,1,1,1568786336,False,IN_SERVICE,116 - HOSPITAL ALEMÁN,12,-34.5921708,-58.4025894,2019-09-18 03:01:56.945040-03:00,2019-09-18 02:58:56,3,False
117,0,"{'mechanical': 0, 'ebike': 0}",4,12,0,1,1,1,1568786384,False,IN_SERVICE,117 - HUMBERTO 1°,16,-34.620100799999996,-58.3741759,2019-09-18 03:01:56.945040-03:00,2019-09-18 02:59:44,2,False
118,0,"{'mechanical': 0, 'ebike': 0}",3,17,0,1,1,1,1568786436,False,IN_SERVICE,118 - MEXICO,20,-34.6170196,-58.402653099999995,2019-09-18 03:01:56.945040-03:00,2019-09-18 03:00:36,1,False
119,7,"{'mechanical': 7, 'ebike': 0}",3,10,0,1,1,1,1568786453,False,IN_SERVICE,119 - EMILIO MITRE,20,-34.588560799999996,-58.397329299999996,2019-09-18 03:01:56.945040-03:00,2019-09-18 03:00:53,1,False
120,1,"{'mechanical': 1, 'ebike': 0}",7,12,0,1,1,1,1568786425,False,IN_SERVICE,120 - HOSPITAL RAMOS MEJIA,20,-34.617509000000005,-58.409287600000006,2019-09-18 03:01:56.945040-03:00,2019-09-18 03:00:25,1,False
121,0,"{'mechanical': 0, 'ebike': 0}",11,9,0,1,1,1,1568786332,False,IN_SERVICE,121 - YATAY,20,-34.601173200000005,-58.4285093,2019-09-18 03:01:56.945040-03:00,2019-09-18 02:58:52,3,False
122,2,"{'mechanical': 2, 'ebike': 0}",3,15,0,1,1,1,1568786355,False,IN_SERVICE,122 - COSTA RICA,20,-34.5916569,-58.4204199,2019-09-18 03:01:56.945040-03:00,2019-09-18 02:59:15,2,False
124,0,"{'mechanical': 0, 'ebike': 0}",0,20,0,1,1,1,1568786242,False,IN_SERVICE,124 - UGARTECHE,20,-34.580538,-58.411965,2019-09-18 03:01:56.945040-03:00,2019-09-18 02:57:22,4,False
126,1,"{'mechanical': 1, 'ebike': 0}",0,15,0,1,1,1,1568786427,False,IN_SERVICE,126 - Ministerio de Justicia y Seguridad,16,-34.640267200000004,-58.3692243,2019-09-18 03:01:56.945040-03:00,2019-09-18 03:00:27,1,False
127,0,"{'mechanical': 0, 'ebike': 0}",0,16,0,1,1,1,1568786321,False,IN_SERVICE,127 - SANTOS DUMONT Y OTERO,16,-34.5923884,-58.453077,2019-09-18 03:01:56.945040-03:00,2019-09-18 02:58:41,3,False
128,2,"{'mechanical': 2, 'ebike': 0}",1,17,0,1,1,1,1568786338,False,IN_SERVICE,128 - PARQUE DEL BAJO,20,-34.6041138,-58.3689118,2019-09-18 03:01:56.945040-03:00,2019-09-18 02:58:58,2,False
130,0,"{'mechanical': 0, 'ebike': 0}",1,39,1,1,1,1,1568786365,False,IN_SERVICE,130 - RETIRO II,40,-34.592105600000004,-58.3745419,2019-09-18 03:01:56.945040-03:00,2019-09-18 02:59:25,2,False
131,12,"{'mechanical': 12, 'ebike': 0}",3,1,0,1,1,1,1568730847,False,IN_SERVICE,131- HOSPITAL DE CLÍNICAS,16,-34.59840429999999,-58.399015799999994,2019-09-18 03:01:56.945040-03:00,2019-09-17 11:34:07,927,True
132,0,"{'mechanical': 0, 'ebike': 0}",2,10,0,1,1,1,1568786278,False,IN_SERVICE,132 - CORRIENTES,12,-34.6033685,-58.372763,2019-09-18 03:01:56.945040-03:00,2019-09-18 02:57:58,3,False
134,1,"{'mechanical': 1, 'ebike': 0}",0,19,0,1,1,1,1568786417,False,IN_SERVICE,134 - DON BOSCO,20,-34.611801299999996,-58.4150532,2019-09-18 03:01:56.945040-03:00,2019-09-18 03:00:17,1,False
135,0,"{'mechanical': 0, 'ebike': 0}",1,19,0,1,1,1,1568786351,False,IN_SERVICE,135 - MARCELO T. DE ALVEAR,20,-34.5972818,-58.3787856,2019-09-18 03:01:56.945040-03:00,2019-09-18 02:59:11,2,False
137,10,"{'mechanical': 10, 'ebike': 0}",5,5,2,1,1,1,1568786441,False,IN_SERVICE,137 - AZOPARDO Y CHILE,20,-34.6155977,-58.367492299999995,2019-09-18 03:01:56.945040-03:00,2019-09-18 03:00:41,1,False
138,5,"{'mechanical': 5, 'ebike': 0}",6,1,2,1,1,1,1568786465,False,IN_SERVICE,138 - Hospital Britanico,12,-34.6353595,-58.38767239999999,2019-09-18 03:01:56.945040-03:00,2019-09-18 03:01:05,0,False
141,1,"{'mechanical': 1, 'ebike': 0}",1,18,0,1,1,1,1568786438,False,IN_SERVICE,141 - SOLIS Y ALSINA,20,-34.6115231,-58.3904968,2019-09-18 03:01:56.945040-03:00,2019-09-18 03:00:38,1,False
143,1,"{'mechanical': 1, 'ebike': 0}",2,17,0,1,1,1,1568786328,False,IN_SERVICE,143 - BILLINGHURST Y VALENTÍN GOMEZ,20,-34.604709,-58.415806999999994,2019-09-18 03:01:56.945040-03:00,2019-09-18 02:58:48,3,False
144,0,"{'mechanical': 0, 'ebike': 0}",8,12,0,1,1,1,1568786411,False,IN_SERVICE,144 - PUEYRREDÓN,20,-34.6018744,-58.4060944,2019-09-18 03:01:56.945040-03:00,2019-09-18 03:00:11,1,False
146,2,"{'mechanical': 2, 'ebike': 0}",0,18,0,1,1,1,1568786488,False,IN_SERVICE,146 - Hospital Francés,20,-34.6221118,-58.4078419,2019-09-18 03:01:56.945040-03:00,2019-09-18 03:01:28,0,False
148,4,"{'mechanical': 4, 'ebike': 0}",3,21,1,1,1,1,1568786358,False,IN_SERVICE,323 - Parque Avellaneda II,28,-34.6446524,-58.4843274,2019-09-18 03:01:56.945040-03:00,2019-09-18 02:59:18,2,False
149,1,"{'mechanical': 1, 'ebike': 0}",1,14,0,1,1,1,1568786460,False,IN_SERVICE,149 - LIMA,16,-34.6153266,-58.3813642,2019-09-18 03:01:56.945040-03:00,2019-09-18 03:01:00,0,False
150,0,"{'mechanical': 0, 'ebike': 0}",0,30,0,1,1,1,1568786334,False,IN_SERVICE,150 - VERA PEÑALOZA,30,-34.618100299999995,-58.363138899999996,2019-09-18 03:01:56.945040-03:00,2019-09-18 02:58:54,3,False
151,0,"{'mechanical': 0, 'ebike': 0}",3,21,0,1,1,1,1568786316,False,IN_SERVICE,151 - AIME PAINÉ,24,-34.6118145,-58.361284999999995,2019-09-18 03:01:56.945040-03:00,2019-09-18 02:58:36,3,False
152,0,"{'mechanical': 0, 'ebike': 0}",0,19,0,1,1,1,1568786327,False,IN_SERVICE,152 - JULIETA LANTERI,19,-34.6181645,-58.3596311,2019-09-18 03:01:56.945040-03:00,2019-09-18 02:58:47,3,False
153,2,"{'mechanical': 2, 'ebike': 0}",6,7,2,1,1,1,1568786287,False,IN_SERVICE,153 - JUAN MANUEL DE BLANES,15,-34.6307765,-58.3620701,2019-09-18 03:01:56.945040-03:00,2019-09-18 02:58:07,3,False
154,8,"{'mechanical': 8, 'ebike': 0}",3,9,3,1,1,1,1568786371,False,IN_SERVICE,154 - GALLO,20,-34.6005484,-58.412284899999996,2019-09-18 03:01:56.945040-03:00,2019-09-18 02:59:31,2,False
155,0,"{'mechanical': 0, 'ebike': 0}",3,17,0,1,1,1,1568786422,False,IN_SERVICE,155 - Parque José Evaristo Uriburu,20,-34.640961700000005,-58.412560600000006,2019-09-18 03:01:56.945040-03:00,2019-09-18 03:00:22,1,False
156,0,"{'mechanical': 0, 'ebike': 0}",1,19,0,1,1,1,1568786303,False,IN_SERVICE,156 - Plaza Alemania,20,-34.5775895,-58.4074696,2019-09-18 03:01:56.945040-03:00,2019-09-18 02:58:23,3,False
158,0,"{'mechanical': 0, 'ebike': 0}",0,20,0,1,1,1,1568786226,False,IN_SERVICE,158 - VILLARROEL,20,-34.592735,-58.445069700000005,2019-09-18 03:01:56.945040-03:00,2019-09-18 02:57:06,4,False
161,0,"{'mechanical': 0, 'ebike': 0}",0,20,0,1,1,1,1568786230,False,IN_SERVICE,161 - Humahuaca,20,-34.6020779,-58.419676100000004,2019-09-18 03:01:56.945040-03:00,2019-09-18 02:57:10,4,False
162,7,"{'mechanical': 7, 'ebike': 0}",4,9,0,1,1,1,1568786371,False,IN_SERVICE,162 - LARREA Y BARTOLOMÉ MITRE,20,-34.608985,-58.401924,2019-09-18 03:01:56.945040-03:00,2019-09-18 02:59:31,2,False
163,1,"{'mechanical': 1, 'ebike': 0}",2,27,0,1,1,1,1568786386,False,IN_SERVICE,163 - ONCE II,30,-34.6095663,-58.406430799999995,2019-09-18 03:01:56.945040-03:00,2019-09-18 02:59:46,2,False
164,1,"{'mechanical': 1, 'ebike': 0}",4,15,0,1,1,1,1568786368,False,IN_SERVICE,164 - FACULTAD DE INGENERIA,20,-34.6181442,-58.366902100000004,2019-09-18 03:01:56.945040-03:00,2019-09-18 02:59:28,2,False
165,0,"{'mechanical': 0, 'ebike': 0}",2,10,0,1,1,1,1568786356,False,IN_SERVICE,165 - PLAZA MONSEÑOR MIGUEL DE ANDREA,12,-34.597048,-58.407614,2019-09-18 03:01:56.945040-03:00,2019-09-18 02:59:16,2,False
166,0,"{'mechanical': 0, 'ebike': 0}",3,17,1,1,1,1,1568786449,False,IN_SERVICE,166 - Cementerio de Recoleta,20,-34.589189700000006,-58.393250699999996,2019-09-18 03:01:56.945040-03:00,2019-09-18 03:00:49,1,False
167,0,"{'mechanical': 0, 'ebike': 0}",4,12,0,1,1,1,1568786299,False,IN_SERVICE,275 - PLAZA 24 DE SEPTIEMBRE,16,-34.6070594,-58.4485709,2019-09-18 03:01:56.945040-03:00,2019-09-18 02:58:19,3,False
168,1,"{'mechanical': 1, 'ebike': 0}",2,12,0,1,1,1,1568786415,False,IN_SERVICE,168 - Estados Unidos,16,-34.6186217,-58.381227100000004,2019-09-18 03:01:56.945040-03:00,2019-09-18 03:00:15,1,False
169,0,"{'mechanical': 0, 'ebike': 0}",0,12,0,1,1,1,1568786388,False,IN_SERVICE,169 - FACULTAD DE PSICOLOGIA,12,-34.611875,-58.411887,2019-09-18 03:01:56.945040-03:00,2019-09-18 02:59:48,2,False
170,1,"{'mechanical': 1, 'ebike': 0}",2,17,0,1,1,1,1568786428,False,IN_SERVICE,170 - SAN LUIS Y ECUADOR,20,-34.599664399999995,-58.40610229999999,2019-09-18 03:01:56.945040-03:00,2019-09-18 03:00:28,1,False
171,2,"{'mechanical': 2, 'ebike': 0}",2,16,0,1,1,1,1568786362,False,IN_SERVICE,171 - Pasteur,20,-34.6032813,-58.399755299999995,2019-09-18 03:01:56.945040-03:00,2019-09-18 02:59:22,2,False
172,0,"{'mechanical': 0, 'ebike': 0}",2,14,0,1,1,1,1568786342,False,IN_SERVICE,172 - BRASIL,16,-34.625426000000004,-58.371081999999994,2019-09-18 03:01:56.945040-03:00,2019-09-18 02:59:02,2,False
173,0,"{'mechanical': 0, 'ebike': 0}",1,15,0,1,1,1,1568786474,False,IN_SERVICE,173 - PLAZA CECILIA GRIERSON,16,-34.622296399999996,-58.37516070000001,2019-09-18 03:01:56.945040-03:00,2019-09-18 03:01:14,0,False
174,0,"{'mechanical': 0, 'ebike': 0}",1,19,1,1,1,1,1568786416,False,IN_SERVICE,174 - MINISTERIO DE EDUCACION,20,-34.597225,-58.391768000000006,2019-09-18 03:01:56.945040-03:00,2019-09-18 03:00:16,1,False
175,2,"{'mechanical': 2, 'ebike': 0}",8,26,0,1,1,1,1568786359,False,IN_SERVICE,147 - Constitución,36,-34.6267408,-58.38093489999999,2019-09-18 03:01:56.945040-03:00,2019-09-18 02:59:19,2,False
176,9,"{'mechanical': 9, 'ebike': 0}",6,5,0,1,1,1,1568786295,False,IN_SERVICE,176 - PINZÓN Y MARTÍN RODRIGUEZ,20,-34.634187299999994,-58.3611029,2019-09-18 03:01:56.945040-03:00,2019-09-18 02:58:15,3,False
177,0,"{'mechanical': 0, 'ebike': 0}",1,11,0,1,1,1,1568786280,False,IN_SERVICE,177 -PLANETARIO,12,-34.568015100000004,-58.41208,2019-09-18 03:01:56.945040-03:00,2019-09-18 02:58:00,3,False
179,4,"{'mechanical': 4, 'ebike': 0}",8,7,0,1,1,1,1568786477,False,IN_SERVICE,179 - LA BOCA,19,-34.638989,-58.3605313,2019-09-18 03:01:56.945040-03:00,2019-09-18 03:01:17,0,False
180,1,"{'mechanical': 1, 'ebike': 0}",1,18,0,1,1,1,1568786272,False,IN_SERVICE,180 - CASTRO Y MEXICO,20,-34.619775,-58.420492,2019-09-18 03:01:56.945040-03:00,2019-09-18 02:57:52,4,False
181,1,"{'mechanical': 1, 'ebike': 0}",2,17,0,1,1,1,1568786441,False,IN_SERVICE,181 - BILLINGHURST Y MANSILLA,20,-34.5927221,-58.4120394,2019-09-18 03:01:56.945040-03:00,2019-09-18 03:00:41,1,False
182,0,"{'mechanical': 0, 'ebike': 0}",0,20,0,1,1,1,1568786429,False,IN_SERVICE,182 - RAVIGNANI Y GUATEMALA,20,-34.5780479,-58.4352466,2019-09-18 03:01:56.945040-03:00,2019-09-18 03:00:29,1,False
183,3,"{'mechanical': 3, 'ebike': 0}",4,12,0,1,1,1,1568786257,False,IN_SERVICE,183 - VIRREY CEVALLOS,19,-34.615699400000004,-58.3899728,2019-09-18 03:01:56.945040-03:00,2019-09-18 02:57:37,4,False
184,1,"{'mechanical': 1, 'ebike': 0}",4,15,0,1,1,1,1568786283,False,IN_SERVICE,184 - Pedro Echague,20,-34.630612899999996,-58.3913419,2019-09-18 03:01:56.945040-03:00,2019-09-18 02:58:03,3,False
185,4,"{'mechanical': 4, 'ebike': 0}",0,16,0,1,1,1,1568786417,False,IN_SERVICE,185 - AV. PAVÓN Y 33 ORIENTALES,20,-34.63133,-58.421769999999995,2019-09-18 03:01:56.945040-03:00,2019-09-18 03:00:17,1,False
186,1,"{'mechanical': 1, 'ebike': 0}",2,17,0,1,1,1,1568786412,False,IN_SERVICE,186 - MANZANA 66,20,-34.6136356,-58.40644150000001,2019-09-18 03:01:56.945040-03:00,2019-09-18 03:00:12,1,False
187,0,"{'mechanical': 0, 'ebike': 0}",4,12,0,1,1,1,1568786459,False,IN_SERVICE,261 - QUINTEROS LIDORO,16,-34.5528626,-58.45085400000001,2019-09-18 03:01:56.945040-03:00,2019-09-18 03:00:59,0,False
188,3,"{'mechanical': 3, 'ebike': 0}",6,11,0,1,1,1,1568786442,False,IN_SERVICE,373 - Jorgelina De Simone,20,-34.623923,-58.3904814,2019-09-18 03:01:56.945040-03:00,2019-09-18 03:00:42,1,False
189,0,"{'mechanical': 0, 'ebike': 0}",0,20,0,1,1,1,1568786458,False,IN_SERVICE,189 - POSADAS,20,-34.588688899999994,-58.3852113,2019-09-18 03:01:56.945040-03:00,2019-09-18 03:00:58,0,False
190,0,"{'mechanical': 0, 'ebike': 0}",1,19,0,1,1,1,1568786462,False,IN_SERVICE,190 - JUNCAL,20,-34.5850763,-58.41111360000001,2019-09-18 03:01:56.945040-03:00,2019-09-18 03:01:02,0,False
191,0,"{'mechanical': 0, 'ebike': 0}",0,16,0,1,1,1,1568786434,False,IN_SERVICE,191 - Rivadavia y 9 de Julio,16,-34.6079305,-58.3808358,2019-09-18 03:01:56.945040-03:00,2019-09-18 03:00:34,1,False
192,1,"{'mechanical': 1, 'ebike': 0}",5,14,0,1,1,1,1568786274,False,IN_SERVICE,192 - Talcahuano,20,-34.5972773,-58.3855748,2019-09-18 03:01:56.945040-03:00,2019-09-18 02:57:54,4,False
193,1,"{'mechanical': 1, 'ebike': 0}",4,15,0,1,1,1,1568786255,False,IN_SERVICE,193 - ARENALES Y AGUERO,20,-34.5908626,-58.4061652,2019-09-18 03:01:56.945040-03:00,2019-09-18 02:57:35,4,False
194,2,"{'mechanical': 2, 'ebike': 0}",0,14,1,1,1,1,1568786299,False,IN_SERVICE,194 - PERÓN Y ACUÑA DE FIGUEROA,16,-34.6060758,-58.4224635,2019-09-18 03:01:56.945040-03:00,2019-09-18 02:58:19,3,False
195,0,"{'mechanical': 0, 'ebike': 0}",3,17,0,1,1,1,1568786451,False,IN_SERVICE,357 - PLAZA MARTIN FIERRO,20,-34.6260785,-58.407389,2019-09-18 03:01:56.945040-03:00,2019-09-18 03:00:51,1,False
196,16,"{'mechanical': 16, 'ebike': 0}",1,3,7,1,1,1,1568786252,False,IN_SERVICE,196 - HOSPITAL ARGERICH,20,-34.6275351,-58.3657211,2019-09-18 03:01:56.945040-03:00,2019-09-18 02:57:32,4,False
197,1,"{'mechanical': 1, 'ebike': 0}",1,18,0,1,1,1,1568786292,False,IN_SERVICE,197 - Quintino Bocayuva,20,-34.613448999999996,-58.42339690000001,2019-09-18 03:01:56.945040-03:00,2019-09-18 02:58:12,3,False
199,0,"{'mechanical': 0, 'ebike': 0}",0,20,0,1,1,1,1568786478,False,IN_SERVICE,199 - ESTADOS UNIDOS Y BOEDO,20,-34.622260100000005,-58.4160137,2019-09-18 03:01:56.945040-03:00,2019-09-18 03:01:18,0,False
200,0,"{'mechanical': 0, 'ebike': 0}",2,18,1,1,1,1,1568786435,False,IN_SERVICE,200 - AUSTRIA Y FRENCH,20,-34.5883282,-58.4038684,2019-09-18 03:01:56.945040-03:00,2019-09-18 03:00:35,1,False
201,0,"{'mechanical': 0, 'ebike': 0}",0,20,0,1,1,1,1568786316,False,IN_SERVICE,175 - Esmeralda y Corrientes,20,-34.6034449,-58.378167000000005,2019-09-18 03:01:56.945040-03:00,2019-09-18 02:58:36,3,False
202,25,"{'mechanical': 25, 'ebike': 0}",1,4,5,1,1,1,1568786371,False,IN_SERVICE,001 - FACULTAD DE DERECHO,30,-34.583811,-58.390967,2019-09-18 03:01:56.945040-03:00,2019-09-18 02:59:31,2,False
203,2,"{'mechanical': 2, 'ebike': 0}",4,18,1,1,1,1,1568786349,False,IN_SERVICE,108 - Usina del Arte,24,-34.628510999999996,-58.356004000000006,2019-09-18 03:01:56.945040-03:00,2019-09-18 02:59:09,2,False
204,0,"{'mechanical': 0, 'ebike': 0}",0,24,0,1,1,1,1568786433,False,IN_SERVICE,167 - Hipólito Yrigoyen,24,-34.6148209,-58.4278453,2019-09-18 03:01:56.945040-03:00,2019-09-18 03:00:33,1,False
205,1,"{'mechanical': 1, 'ebike': 0}",3,12,0,1,1,1,1568786315,False,IN_SERVICE,125 - F.J.Santamaria de Oro,16,-34.583273299999995,-58.427956200000004,2019-09-18 03:01:56.945040-03:00,2019-09-18 02:58:35,3,False
206,0,"{'mechanical': 0, 'ebike': 0}",1,15,0,1,1,1,1568786366,False,IN_SERVICE,159 - Fitz Roy & Gorriti,16,-34.5849119,-58.4372524,2019-09-18 03:01:56.945040-03:00,2019-09-18 02:59:26,2,False
207,3,"{'mechanical': 3, 'ebike': 0}",4,13,0,1,1,1,1568786354,False,IN_SERVICE,123 - Armenia,20,-34.5852485,-58.420906,2019-09-18 03:01:56.945040-03:00,2019-09-18 02:59:14,2,False
208,0,"{'mechanical': 0, 'ebike': 0}",0,20,0,1,1,1,1568786293,False,IN_SERVICE,145 - RAVIGNANI,20,-34.58047020000001,-58.43799250000001,2019-09-18 03:01:56.945040-03:00,2019-09-18 02:58:13,3,False
210,0,"{'mechanical': 0, 'ebike': 0}",5,15,1,1,1,1,1568786388,False,IN_SERVICE,335 - General Urquiza,20,-34.572132,-58.4113228,2019-09-18 03:01:56.945040-03:00,2019-09-18 02:59:48,2,False
211,5,"{'mechanical': 5, 'ebike': 0}",3,12,0,1,1,1,1568786455,False,IN_SERVICE,195 - Plaza Garay,20,-34.6266267,-58.3879696,2019-09-18 03:01:56.945040-03:00,2019-09-18 03:00:55,1,False
212,3,"{'mechanical': 3, 'ebike': 0}",6,11,0,1,1,1,1568786474,False,IN_SERVICE,129 - Velasco,20,-34.600164,-58.434982999999995,2019-09-18 03:01:56.945040-03:00,2019-09-18 03:01:14,0,False
213,1,"{'mechanical': 1, 'ebike': 0}",8,11,0,1,1,1,1568786479,False,IN_SERVICE,136 - Acevedo,20,-34.5995649,-58.442536200000006,2019-09-18 03:01:56.945040-03:00,2019-09-18 03:01:19,0,False
214,1,"{'mechanical': 1, 'ebike': 0}",1,14,1,1,1,1,1568786243,False,IN_SERVICE,142 - Armenia y Gorriti,16,-34.5905808,-58.428962399999996,2019-09-18 03:01:56.945040-03:00,2019-09-18 02:57:23,4,False
215,2,"{'mechanical': 2, 'ebike': 0}",1,17,0,1,1,1,1568786430,False,IN_SERVICE,113 - Guatemala,20,-34.5858843,-58.4251226,2019-09-18 03:01:56.945040-03:00,2019-09-18 03:00:30,1,False
216,1,"{'mechanical': 1, 'ebike': 0}",4,15,2,1,1,1,1568786305,False,IN_SERVICE,059 - Coronel Diaz,20,-34.5900976,-58.4114907,2019-09-18 03:01:56.945040-03:00,2019-09-18 02:58:25,3,False
217,0,"{'mechanical': 0, 'ebike': 0}",0,16,0,1,1,1,1568786299,False,IN_SERVICE,198 - HOSPITAL SARDÁ,16,-34.6342818,-58.404212300000005,2019-09-18 03:01:56.945040-03:00,2019-09-18 02:58:19,3,False
218,2,"{'mechanical': 2, 'ebike': 0}",2,12,0,1,1,1,1568786474,False,IN_SERVICE,067 - Senillosa,16,-34.638523,-58.425464,2019-09-18 03:01:56.945040-03:00,2019-09-18 03:01:14,0,False
219,12,"{'mechanical': 12, 'ebike': 0}",4,0,3,1,1,1,1568786353,False,IN_SERVICE,140 - Las Casas,16,-34.635173200000004,-58.415703500000006,2019-09-18 03:01:56.945040-03:00,2019-09-18 02:59:13,2,False
220,0,"{'mechanical': 0, 'ebike': 0}",1,15,0,1,1,1,1568786266,False,IN_SERVICE,097 - Avelino Diaz,16,-34.635471700000004,-58.4279173,2019-09-18 03:01:56.945040-03:00,2019-09-18 02:57:46,4,False
221,0,"{'mechanical': 0, 'ebike': 0}",1,19,0,1,1,1,1568786381,False,IN_SERVICE,157 - Senillosa y Zuviria,20,-34.6280441,-58.427404200000005,2019-09-18 03:01:56.945040-03:00,2019-09-18 02:59:41,2,False
222,2,"{'mechanical': 2, 'ebike': 0}",1,17,0,1,1,1,1568786388,False,IN_SERVICE,160 - Godoy Cruz y Libertador,20,-34.5727715,-58.4206642,2019-09-18 03:01:56.945040-03:00,2019-09-18 02:59:48,2,False
223,1,"{'mechanical': 1, 'ebike': 0}",4,11,0,1,1,1,1568786297,False,IN_SERVICE,178 - José Marmol,16,-34.623456,-58.42489499999999,2019-09-18 03:01:56.945040-03:00,2019-09-18 02:58:17,3,False
224,2,"{'mechanical': 2, 'ebike': 0}",0,18,0,1,1,1,1568786398,False,IN_SERVICE,133 - Nicaragua,20,-34.5808537,-58.434484,2019-09-18 03:01:56.945040-03:00,2019-09-18 02:59:58,1,False
225,0,"{'mechanical': 0, 'ebike': 0}",1,19,0,1,1,1,1568786295,False,IN_SERVICE,109 - Lerma,20,-34.5968511,-58.4295184,2019-09-18 03:01:56.945040-03:00,2019-09-18 02:58:15,3,False
226,0,"{'mechanical': 0, 'ebike': 0}",7,13,0,1,1,1,1568786427,False,IN_SERVICE,139 - Virrey Liniers,20,-34.633334999999995,-58.41322629999999,2019-09-18 03:01:56.945040-03:00,2019-09-18 03:00:27,1,False
227,0,"{'mechanical': 0, 'ebike': 0}",6,14,0,1,1,1,1568786248,False,IN_SERVICE,188 - Aranguren,20,-34.6105021,-58.4327935,2019-09-18 03:01:56.945040-03:00,2019-09-18 02:57:28,4,False
228,0,"{'mechanical': 0, 'ebike': 0}",3,17,1,1,1,1,1568786300,False,IN_SERVICE,010 - Madero UCA,20,-34.6162819,-58.365744400000004,2019-09-18 03:01:56.945040-03:00,2019-09-18 02:58:20,3,False
229,1,"{'mechanical': 1, 'ebike': 0}",0,11,0,1,1,1,1568786334,False,IN_SERVICE,243 - PLAZOLETA CELEDONIO FLORES,12,-34.5813811,-58.4514575,2019-09-18 03:01:56.945040-03:00,2019-09-18 02:58:54,3,False
230,0,"{'mechanical': 0, 'ebike': 0}",3,13,0,1,1,1,1568786262,False,IN_SERVICE,259 - PLAZA CASTELLI,16,-34.5678255,-58.4645037,2019-09-18 03:01:56.945040-03:00,2019-09-18 02:57:42,4,False
231,0,"{'mechanical': 0, 'ebike': 0}",0,16,0,1,1,1,1568786410,False,IN_SERVICE,384 - PLAZA BENITO NAZAR,16,-34.6051305,-58.445839799999995,2019-09-18 03:01:56.945040-03:00,2019-09-18 03:00:10,1,False
232,1,"{'mechanical': 1, 'ebike': 0}",5,14,0,1,1,1,1568786400,False,IN_SERVICE,252 - Tamborini,20,-34.5599395,-58.4788904,2019-09-18 03:01:56.945040-03:00,2019-09-18 03:00:00,1,False
233,0,"{'mechanical': 0, 'ebike': 0}",2,22,0,1,1,1,1568786477,False,IN_SERVICE,389 - Plaza República De Mexico,24,-34.553976500000005,-58.43603670000001,2019-09-18 03:01:56.945040-03:00,2019-09-18 03:01:17,0,False
234,0,"{'mechanical': 0, 'ebike': 0}",1,19,0,1,1,1,1568786467,False,IN_SERVICE,344 - UNIVERSIDAD DI TELLA,20,-34.5483593,-58.447567299999996,2019-09-18 03:01:56.945040-03:00,2019-09-18 03:01:07,0,False
235,5,"{'mechanical': 5, 'ebike': 0}",2,17,0,1,1,1,1568786322,False,IN_SERVICE,281 - Villa Urquiza,24,-34.5737764,-58.4868051,2019-09-18 03:01:56.945040-03:00,2019-09-18 02:58:42,3,False
236,0,"{'mechanical': 0, 'ebike': 0}",1,15,0,1,1,1,1568786420,False,IN_SERVICE,254 - Plaza Rafael Hernandez,16,-34.5623422,-58.455048399999995,2019-09-18 03:01:56.945040-03:00,2019-09-18 03:00:20,1,False
238,0,"{'mechanical': 0, 'ebike': 0}",5,19,0,1,1,1,1568786250,False,IN_SERVICE,217 - Cachimayo,24,-34.636581400000004,-58.43670110000001,2019-09-18 03:01:56.945040-03:00,2019-09-18 02:57:30,4,False
239,0,"{'mechanical': 0, 'ebike': 0}",1,19,0,1,1,1,1568786453,False,IN_SERVICE,391 - Plaza República de Ecuador,20,-34.565008899999995,-58.4201625,2019-09-18 03:01:56.945040-03:00,2019-09-18 03:00:53,1,False
240,0,"{'mechanical': 0, 'ebike': 0}",0,24,0,1,1,1,1568786373,False,IN_SERVICE,239 - Vidal,24,-34.558137,-58.465559,2019-09-18 03:01:56.945040-03:00,2019-09-18 02:59:33,2,False
241,2,"{'mechanical': 2, 'ebike': 0}",1,9,0,1,1,1,1568786402,False,IN_SERVICE,348 - Villa del Parque,12,-34.600874,-58.494122999999995,2019-09-18 03:01:56.945040-03:00,2019-09-18 03:00:02,1,False
242,0,"{'mechanical': 0, 'ebike': 0}",1,19,0,1,1,1,1568786270,False,IN_SERVICE,103 - MALBA,20,-34.5771741,-58.4032162,2019-09-18 03:01:56.945040-03:00,2019-09-18 02:57:50,4,False
244,2,"{'mechanical': 2, 'ebike': 0}",0,18,0,1,1,1,1568786434,False,IN_SERVICE,266 - Plaza Alfredo Nobel,20,-34.5874735,-58.4842469,2019-09-18 03:01:56.945040-03:00,2019-09-18 03:00:34,1,False
245,0,"{'mechanical': 0, 'ebike': 0}",1,15,0,1,1,1,1568786407,False,IN_SERVICE,248 - Husares,16,-34.5522044,-58.4431506,2019-09-18 03:01:56.945040-03:00,2019-09-18 03:00:07,1,False
246,0,"{'mechanical': 0, 'ebike': 0}",1,15,0,1,1,1,1568786456,False,IN_SERVICE,338 - Sucre y Dragones,16,-34.554326,-58.438925600000005,2019-09-18 03:01:56.945040-03:00,2019-09-18 03:00:56,1,False
247,1,"{'mechanical': 1, 'ebike': 0}",0,17,0,1,1,1,1568786287,False,IN_SERVICE,282 - Tronador,18,-34.5839895,-58.4666304,2019-09-18 03:01:56.945040-03:00,2019-09-18 02:58:07,3,False
248,5,"{'mechanical': 5, 'ebike': 0}",1,14,0,1,1,1,1568786381,False,IN_SERVICE,346 - Plaza Zapiola,20,-34.5738411,-58.4742812,2019-09-18 03:01:56.945040-03:00,2019-09-18 02:59:41,2,False
249,6,"{'mechanical': 6, 'ebike': 0}",8,2,1,1,1,1,1568786454,False,IN_SERVICE,307 - LEONARDO PEREYRA,16,-34.651177600000004,-58.3887759,2019-09-18 03:01:56.945040-03:00,2019-09-18 03:00:54,1,False
250,9,"{'mechanical': 9, 'ebike': 0}",7,0,0,1,1,1,1568786334,False,IN_SERVICE,366 - Plaza Diaz Velez,16,-34.6526797,-58.377215,2019-09-18 03:01:56.945040-03:00,2019-09-18 02:58:54,3,False
251,0,"{'mechanical': 0, 'ebike': 0}",5,15,0,1,1,1,1568786295,False,IN_SERVICE,388 - Plaza Jose C Paz,20,-34.644622399999996,-58.409772,2019-09-18 03:01:56.945040-03:00,2019-09-18 02:58:15,3,False
252,5,"{'mechanical': 5, 'ebike': 0}",5,6,0,1,1,1,1568786402,False,IN_SERVICE,331 - PLAZA HERRERA,16,-34.64451629999999,-58.3762137,2019-09-18 03:01:56.945040-03:00,2019-09-18 03:00:02,1,False
253,1,"{'mechanical': 1, 'ebike': 0}",2,17,0,1,1,1,1568786428,False,IN_SERVICE,383 - Boedo & Venezuela,20,-34.617280799999996,-58.4167728,2019-09-18 03:01:56.945040-03:00,2019-09-18 03:00:28,1,False
254,2,"{'mechanical': 2, 'ebike': 0}",0,14,0,1,1,1,1568786313,False,IN_SERVICE,276 - PRIMERA JUNTA,16,-34.6206836,-58.4415718,2019-09-18 03:01:56.945040-03:00,2019-09-18 02:58:33,3,False
255,0,"{'mechanical': 0, 'ebike': 0}",3,13,0,1,1,1,1568786338,False,IN_SERVICE,374 - Puan,16,-34.6221889,-58.44855,2019-09-18 03:01:56.945040-03:00,2019-09-18 02:58:58,2,False
256,0,"{'mechanical': 0, 'ebike': 0}",0,20,0,1,1,1,1568786349,False,IN_SERVICE,209 - PAYSANDU,20,-34.610397999999996,-58.454304,2019-09-18 03:01:56.945040-03:00,2019-09-18 02:59:09,2,False
257,21,"{'mechanical': 21, 'ebike': 0}",3,0,1,1,1,1,1568786435,False,IN_SERVICE,264 - Plaza Marcos Sastre,24,-34.570828999999996,-58.481232999999996,2019-09-18 03:01:56.945040-03:00,2019-09-18 03:00:35,1,False
258,1,"{'mechanical': 1, 'ebike': 0}",3,12,0,1,1,1,1568786388,False,IN_SERVICE,336 - La Pampa,16,-34.56559179999999,-58.455483799999996,2019-09-18 03:01:56.945040-03:00,2019-09-18 02:59:48,2,False
259,0,"{'mechanical': 0, 'ebike': 0}",1,15,0,1,1,1,1568786372,False,IN_SERVICE,290 - Club Excursionistas,16,-34.5580469,-58.4434052,2019-09-18 03:01:56.945040-03:00,2019-09-18 02:59:32,2,False
260,0,"{'mechanical': 0, 'ebike': 0}",1,17,0,1,1,1,1568786336,False,IN_SERVICE,371 - Paseo de las Americas,18,-34.550961,-58.4381142,2019-09-18 03:01:56.945040-03:00,2019-09-18 02:58:56,3,False
261,2,"{'mechanical': 2, 'ebike': 0}",1,13,0,1,1,1,1568786073,False,IN_SERVICE,272 - Plaza Bruno Giordano,16,-34.616207,-58.4406995,2019-09-18 03:01:56.945040-03:00,2019-09-18 02:54:33,7,False
262,2,"{'mechanical': 2, 'ebike': 0}",0,14,0,1,1,1,1568786392,False,IN_SERVICE,349 - Plaza Saenz Peña,16,-34.60962,-58.4673963,2019-09-18 03:01:56.945040-03:00,2019-09-18 02:59:52,2,False
263,2,"{'mechanical': 2, 'ebike': 0}",3,7,0,1,1,1,1568786353,False,IN_SERVICE,270 - PLAZA DEL ANGEL GRIS,12,-34.621794799999996,-58.457527899999995,2019-09-18 03:01:56.945040-03:00,2019-09-18 02:59:13,2,False
264,0,"{'mechanical': 0, 'ebike': 0}",3,13,0,1,1,1,1568786482,False,IN_SERVICE,283 - CNEL. JUAN CRUZ CZETZ,16,-34.5559308,-58.4812325,2019-09-18 03:01:56.945040-03:00,2019-09-18 03:01:22,0,False
265,6,"{'mechanical': 6, 'ebike': 0}",7,3,2,1,1,1,1568786354,False,IN_SERVICE,361 - Plaza Don Segundo Sombra,16,-34.641883299999996,-58.450658,2019-09-18 03:01:56.945040-03:00,2019-09-18 02:59:14,2,False
266,11,"{'mechanical': 11, 'ebike': 0}",4,1,3,1,1,1,1568786302,False,IN_SERVICE,379 - BERG,16,-34.6601336,-58.42872020000001,2019-09-18 03:01:56.945040-03:00,2019-09-18 02:58:22,3,False
267,1,"{'mechanical': 1, 'ebike': 0}",5,6,0,1,1,1,1568786305,False,IN_SERVICE,353 - PLAZA VELEZ SARSFIELD,12,-34.629651200000005,-58.4835484,2019-09-18 03:01:56.945040-03:00,2019-09-18 02:58:25,3,False
268,0,"{'mechanical': 0, 'ebike': 0}",5,23,0,1,1,1,1568786410,False,IN_SERVICE,399 - GARCIA DEL RIO,28,-34.550292999999996,-58.4764172,2019-09-18 03:01:56.945040-03:00,2019-09-18 03:00:10,1,False
269,0,"{'mechanical': 0, 'ebike': 0}",1,17,0,1,1,1,1568786321,False,IN_SERVICE,260 - SAN MIGUEL DE GARICOITS,18,-34.577296000000004,-58.457854000000005,2019-09-18 03:01:56.945040-03:00,2019-09-18 02:58:41,3,False
270,2,"{'mechanical': 2, 'ebike': 0}",7,7,1,1,1,1,1568786444,False,IN_SERVICE,370 - Beauchef,16,-34.640114000000004,-58.43026,2019-09-18 03:01:56.945040-03:00,2019-09-18 03:00:44,1,False
271,4,"{'mechanical': 4, 'ebike': 0}",5,11,0,1,1,1,1568786428,False,IN_SERVICE,365 - Venancio Flores,20,-34.63008,-58.47426,2019-09-18 03:01:56.945040-03:00,2019-09-18 03:00:28,1,False
272,0,"{'mechanical': 0, 'ebike': 0}",0,20,0,1,1,1,1568786321,False,IN_SERVICE,347 - PLAZA MALAVER,20,-34.5883744,-58.46686510000001,2019-09-18 03:01:56.945040-03:00,2019-09-18 02:58:41,3,False
273,1,"{'mechanical': 1, 'ebike': 0}",3,12,0,1,1,1,1568786274,False,IN_SERVICE,223 - GAINZA,16,-34.61668,-58.4466674,2019-09-18 03:01:56.945040-03:00,2019-09-18 02:57:54,4,False
274,0,"{'mechanical': 0, 'ebike': 0}",2,22,0,1,1,1,1568786351,False,IN_SERVICE,369 - Ciudad De La Paz,24,-34.5563511,-58.4630428,2019-09-18 03:01:56.945040-03:00,2019-09-18 02:59:11,2,False
275,1,"{'mechanical': 1, 'ebike': 0}",2,17,0,1,1,1,1568786371,False,IN_SERVICE,256 - PLAZA NORUEGA,20,-34.5622136,-58.4588816,2019-09-18 03:01:56.945040-03:00,2019-09-18 02:59:31,2,False
276,13,"{'mechanical': 13, 'ebike': 0}",2,1,0,1,1,1,1568786359,False,IN_SERVICE,296 - FREIRE,16,-34.559476000000004,-58.4699652,2019-09-18 03:01:56.945040-03:00,2019-09-18 02:59:19,2,False
277,0,"{'mechanical': 0, 'ebike': 0}",0,12,0,1,1,1,1568786324,False,IN_SERVICE,292 - PLAZA BOLIVIA,12,-34.5634645,-58.43603670000001,2019-09-18 03:01:56.945040-03:00,2019-09-18 02:58:44,3,False
278,1,"{'mechanical': 1, 'ebike': 0}",1,14,0,1,1,1,1568786414,False,IN_SERVICE,233 - MONROE,16,-34.564083000000004,-58.469789,2019-09-18 03:01:56.945040-03:00,2019-09-18 03:00:14,1,False
279,1,"{'mechanical': 1, 'ebike': 0}",4,15,0,1,1,1,1568786431,False,IN_SERVICE,325 - CASTELLI Y PERON,20,-34.6074177,-58.404785399999994,2019-09-18 03:01:56.945040-03:00,2019-09-18 03:00:31,1,False
280,3,"{'mechanical': 3, 'ebike': 0}",4,17,0,1,1,1,1568786275,False,IN_SERVICE,222 - SIMON BOLIVAR,24,-34.633311299999995,-58.4494755,2019-09-18 03:01:56.945040-03:00,2019-09-18 02:57:55,4,False
281,0,"{'mechanical': 0, 'ebike': 0}",5,11,0,1,1,1,1568786382,False,IN_SERVICE,350 - Plaza Irlanda,16,-34.6138773,-58.45837420000001,2019-09-18 03:01:56.945040-03:00,2019-09-18 02:59:42,2,False
282,0,"{'mechanical': 0, 'ebike': 0}",1,19,0,1,1,1,1568786245,False,IN_SERVICE,332 - PLAZOLETA PORTUGAL,20,-34.5699743,-58.4562794,2019-09-18 03:01:56.945040-03:00,2019-09-18 02:57:25,4,False
283,0,"{'mechanical': 0, 'ebike': 0}",0,20,0,1,1,1,1568786378,False,IN_SERVICE,228 - BALDOMERO,20,-34.6355054,-58.456035,2019-09-18 03:01:56.945040-03:00,2019-09-18 02:59:38,2,False
284,1,"{'mechanical': 1, 'ebike': 0}",4,15,0,1,1,1,1568786417,False,IN_SERVICE,229 - RIGLOS,20,-34.6311092,-58.435094299999996,2019-09-18 03:01:56.945040-03:00,2019-09-18 03:00:17,1,False
285,0,"{'mechanical': 0, 'ebike': 0}",0,20,0,1,1,1,1568786472,False,IN_SERVICE,400 - Reserva Ecologica,20,-34.617212200000004,-58.356175199999996,2019-09-18 03:01:56.945040-03:00,2019-09-18 03:01:12,0,False
286,3,"{'mechanical': 3, 'ebike': 0}",2,11,0,1,1,1,1568786322,False,IN_SERVICE,284 - BONIFACIO Y CARABOBO,16,-34.6304712,-58.455111200000005,2019-09-18 03:01:56.945040-03:00,2019-09-18 02:58:42,3,False
287,1,"{'mechanical': 1, 'ebike': 0}",1,18,0,1,1,1,1568786420,False,IN_SERVICE,299 - HIDALGO,20,-34.6103343,-58.44091829999999,2019-09-18 03:01:56.945040-03:00,2019-09-18 03:00:20,1,False
288,9,"{'mechanical': 9, 'ebike': 0}",7,4,0,1,1,1,1568786323,False,IN_SERVICE,333 - MIRO,20,-34.6404886,-58.4429517,2019-09-18 03:01:56.945040-03:00,2019-09-18 02:58:43,3,False
289,1,"{'mechanical': 1, 'ebike': 0}",0,23,0,1,1,1,1568786489,False,IN_SERVICE,255 - BARRANCAS DE BELGRANO,24,-34.559793400000004,-58.4484316,2019-09-18 03:01:56.945040-03:00,2019-09-18 03:01:29,0,False
290,0,"{'mechanical': 0, 'ebike': 0}",1,19,0,1,1,1,1568786465,False,IN_SERVICE,224 - FERROCARRIL OESTE,20,-34.6186003,-58.4456027,2019-09-18 03:01:56.945040-03:00,2019-09-18 03:01:05,0,False
291,0,"{'mechanical': 0, 'ebike': 0}",0,16,0,1,1,1,1568786404,False,IN_SERVICE,244 - UADE,16,-34.616985,-58.381620999999996,2019-09-18 03:01:56.945040-03:00,2019-09-18 03:00:04,1,False
292,0,"{'mechanical': 0, 'ebike': 0}",7,13,1,1,1,1,1568786226,False,IN_SERVICE,355 - PLAZA RICARDO LLERAS,20,-34.634796,-58.378108999999995,2019-09-18 03:01:56.945040-03:00,2019-09-18 02:57:06,4,False
293,0,"{'mechanical': 0, 'ebike': 0}",1,15,0,1,1,1,1568786301,False,IN_SERVICE,294 - Bonifacio,16,-34.6264943,-58.432440500000006,2019-09-18 03:01:56.945040-03:00,2019-09-18 02:58:21,3,False
294,1,"{'mechanical': 1, 'ebike': 0}",17,2,1,1,1,1,1568757915,False,IN_SERVICE,363 - Udaondo,20,-34.5458835,-58.45200620000001,2019-09-18 03:01:56.945040-03:00,2019-09-17 19:05:15,476,True
295,17,"{'mechanical': 17, 'ebike': 0}",2,1,2,1,1,1,1568786373,False,IN_SERVICE,392 - Calasanz,20,-34.624802,-58.43768299999999,2019-09-18 03:01:56.945040-03:00,2019-09-18 02:59:33,2,False
296,0,"{'mechanical': 0, 'ebike': 0}",1,15,0,1,1,1,1568786268,False,IN_SERVICE,293 - PEDERNERA,16,-34.632961,-58.462547,2019-09-18 03:01:56.945040-03:00,2019-09-18 02:57:48,4,False
297,0,"{'mechanical': 0, 'ebike': 0}",2,14,0,1,1,1,1568785868,False,IN_SERVICE,320 - QUIRNO,16,-34.640978000000004,-58.466118,2019-09-18 03:01:56.945040-03:00,2019-09-18 02:51:08,10,False
298,6,"{'mechanical': 6, 'ebike': 0}",4,6,0,1,1,1,1568786361,False,IN_SERVICE,271 - Plazoleta 11 de Noviembre,16,-34.634443,-58.463437,2019-09-18 03:01:56.945040-03:00,2019-09-18 02:59:21,2,False
299,4,"{'mechanical': 4, 'ebike': 0}",0,16,0,1,1,1,1568786435,False,IN_SERVICE,221 - CULPINA,20,-34.631485999999995,-58.46629300000001,2019-09-18 03:01:56.945040-03:00,2019-09-18 03:00:35,1,False
300,9,"{'mechanical': 9, 'ebike': 0}",1,10,3,1,1,1,1568786480,False,IN_SERVICE,321 - PERITO MORENO,20,-34.649215000000005,-58.43168299999999,2019-09-18 03:01:56.945040-03:00,2019-09-18 03:01:20,0,False
301,10,"{'mechanical': 10, 'ebike': 0}",4,6,2,1,1,1,1568786298,False,IN_SERVICE,309 - HOMERO MANZI,20,-34.644841,-58.431785,2019-09-18 03:01:56.945040-03:00,2019-09-18 02:58:18,3,False
302,11,"{'mechanical': 11, 'ebike': 0}",5,0,1,1,1,1,1568786242,False,IN_SERVICE,340 - PLAZA NUEVA POMPEYA,16,-34.651955,-58.415423,2019-09-18 03:01:56.945040-03:00,2019-09-18 02:57:22,4,False
303,1,"{'mechanical': 1, 'ebike': 0}",1,18,0,1,1,1,1568786450,False,IN_SERVICE,238 - RIVERA,20,-34.5577145,-58.462687100000004,2019-09-18 03:01:56.945040-03:00,2019-09-18 03:00:50,1,False
304,0,"{'mechanical': 0, 'ebike': 0}",0,16,0,1,1,1,1568786450,False,IN_SERVICE,395 - Agronomia II,16,-34.589409,-58.484204000000005,2019-09-18 03:01:56.945040-03:00,2019-09-18 03:00:50,1,False
305,7,"{'mechanical': 7, 'ebike': 0}",2,7,0,1,1,1,1568786341,False,IN_SERVICE,398 - Rojas,16,-34.612684,-58.444869999999995,2019-09-18 03:01:56.945040-03:00,2019-09-18 02:59:01,2,False
306,0,"{'mechanical': 0, 'ebike': 0}",0,20,0,1,1,1,1568786330,False,IN_SERVICE,380 - Paysandu y Galicia,20,-34.608465,-58.45585,2019-09-18 03:01:56.945040-03:00,2019-09-18 02:58:50,3,False
307,5,"{'mechanical': 5, 'ebike': 0}",5,10,1,1,1,1,1568786381,False,IN_SERVICE,358 - Plaza Almirante Brown,20,-34.6451626,-58.365323,2019-09-18 03:01:56.945040-03:00,2019-09-18 02:59:41,2,False
308,0,"{'mechanical': 0, 'ebike': 0}",4,16,0,1,1,1,1568786389,False,IN_SERVICE,251 - Solar de la Abadía,20,-34.567639,-58.436847,2019-09-18 03:01:56.945040-03:00,2019-09-18 02:59:49,2,False
309,0,"{'mechanical': 0, 'ebike': 0}",4,16,0,1,1,1,1568786314,False,IN_SERVICE,298 - IRALA,20,-34.6350001,-58.367059,2019-09-18 03:01:56.945040-03:00,2019-09-18 02:58:34,3,False
310,0,"{'mechanical': 0, 'ebike': 0}",5,11,2,1,1,1,1568786400,False,IN_SERVICE,356 - Plaza Sergio Karakachoff,16,-34.63819,-58.377469999999995,2019-09-18 03:01:56.945040-03:00,2019-09-18 03:00:00,1,False
311,1,"{'mechanical': 1, 'ebike': 0}",2,17,0,1,1,1,1568786340,False,IN_SERVICE,213 - Hospital Alvear,20,-34.5972098,-58.47421143,2019-09-18 03:01:56.945040-03:00,2019-09-18 02:59:00,2,False
312,1,"{'mechanical': 1, 'ebike': 0}",6,13,0,1,1,1,1568786265,False,IN_SERVICE,311 - CONCORDIA,20,-34.629028000000005,-58.4769111,2019-09-18 03:01:56.945040-03:00,2019-09-18 02:57:45,4,False
313,1,"{'mechanical': 1, 'ebike': 0}",0,19,0,1,1,1,1568786461,False,IN_SERVICE,291 - UNIVERSIDAD DE BELGRANO,20,-34.565003000000004,-58.4449536,2019-09-18 03:01:56.945040-03:00,2019-09-18 03:01:01,0,False
314,1,"{'mechanical': 1, 'ebike': 0}",5,10,0,1,1,1,1568786372,False,IN_SERVICE,212 - SOR JUANA,16,-34.61047,-58.4602399,2019-09-18 03:01:56.945040-03:00,2019-09-18 02:59:32,2,False
316,2,"{'mechanical': 2, 'ebike': 0}",4,10,0,1,1,1,1568786431,False,IN_SERVICE,205 - SAN MARTIN,16,-34.605638,-58.45336089999999,2019-09-18 03:01:56.945040-03:00,2019-09-18 03:00:31,1,False
317,0,"{'mechanical': 0, 'ebike': 0}",0,20,0,1,1,1,1568786344,False,IN_SERVICE,220 - GIRIBONE,20,-34.5797368,-58.457814600000006,2019-09-18 03:01:56.945040-03:00,2019-09-18 02:59:04,2,False
318,3,"{'mechanical': 3, 'ebike': 0}",2,15,0,1,1,1,1568786289,False,IN_SERVICE,285 - ESPINOSA,20,-34.603935,-58.457319999999996,2019-09-18 03:01:56.945040-03:00,2019-09-18 02:58:09,3,False
319,0,"{'mechanical': 0, 'ebike': 0}",5,15,0,1,1,1,1568786262,False,IN_SERVICE,329 - PASO Y LAVALLE,20,-34.6036,-58.4036,2019-09-18 03:01:56.945040-03:00,2019-09-18 02:57:42,4,False
320,0,"{'mechanical': 0, 'ebike': 0}",0,20,0,1,1,1,1568786479,False,IN_SERVICE,364 - Carranza Y Gorriti,20,-34.584058,-58.440073,2019-09-18 03:01:56.945040-03:00,2019-09-18 03:01:19,0,False
321,2,"{'mechanical': 2, 'ebike': 0}",0,14,0,1,1,1,1568786477,False,IN_SERVICE,246 - EDUARDO OLIVERA,16,-34.561851000000004,-58.444754,2019-09-18 03:01:56.945040-03:00,2019-09-18 03:01:17,0,False
322,0,"{'mechanical': 0, 'ebike': 0}",3,17,0,1,1,1,1568786364,False,IN_SERVICE,289 - MONTAÑESES,20,-34.5513269,-58.4541858,2019-09-18 03:01:56.945040-03:00,2019-09-18 02:59:24,2,False
323,0,"{'mechanical': 0, 'ebike': 0}",2,22,0,1,1,1,1568786387,False,IN_SERVICE,240 - ECHEVERRIA,24,-34.565275,-58.459401,2019-09-18 03:01:56.945040-03:00,2019-09-18 02:59:47,2,False
324,0,"{'mechanical': 0, 'ebike': 0}",2,14,0,1,1,1,1568777298,False,IN_SERVICE,280 - JURAMENTO,16,-34.578933,-58.4840556,2019-09-18 03:01:56.945040-03:00,2019-09-18 00:28:18,153,True
325,1,"{'mechanical': 1, 'ebike': 0}",6,9,0,1,1,1,1568786252,False,IN_SERVICE,342 - SAENZ,16,-34.645252,-58.416546999999994,2019-09-18 03:01:56.945040-03:00,2019-09-18 02:57:32,4,False
326,4,"{'mechanical': 4, 'ebike': 0}",2,14,0,1,1,1,1568786345,False,IN_SERVICE,343 - POMAR,20,-34.6411734,-58.42022660000001,2019-09-18 03:01:56.945040-03:00,2019-09-18 02:59:05,2,False
327,12,"{'mechanical': 12, 'ebike': 0}",0,4,3,1,1,1,1568786246,False,IN_SERVICE,341 - TILCARA,16,-34.654385999999995,-58.419928000000006,2019-09-18 03:01:56.945040-03:00,2019-09-18 02:57:26,4,False
328,2,"{'mechanical': 2, 'ebike': 0}",1,13,0,1,1,1,1568786277,False,IN_SERVICE,43 - Plaza Houssay,16,-34.598549,-58.39735400000001,2019-09-18 03:01:56.945040-03:00,2019-09-18 02:57:57,3,False
329,0,"{'mechanical': 0, 'ebike': 0}",2,18,0,1,1,1,1568786285,False,IN_SERVICE,100 - Plaza Gurruchaga,20,-34.5931053,-58.4351681,2019-09-18 03:01:56.945040-03:00,2019-09-18 02:58:05,3,False
330,1,"{'mechanical': 1, 'ebike': 0}",1,14,0,1,1,1,1568786373,False,IN_SERVICE,148 - Paternal,16,-34.600826700000006,-58.4699818,2019-09-18 03:01:56.945040-03:00,2019-09-18 02:59:33,2,False
332,0,"{'mechanical': 0, 'ebike': 0}",5,11,0,1,1,1,1568786294,False,IN_SERVICE,202 - Nogoya Y Argerich,16,-34.602133,-58.490891000000005,2019-09-18 03:01:56.945040-03:00,2019-09-18 02:58:14,3,False
333,1,"{'mechanical': 1, 'ebike': 0}",3,16,0,1,1,1,1568786457,False,IN_SERVICE,203 - Beiro,20,-34.600433200000005,-58.5036238,2019-09-18 03:01:56.945040-03:00,2019-09-18 03:00:57,0,False
335,2,"{'mechanical': 2, 'ebike': 0}",5,13,0,1,1,1,1568786420,False,IN_SERVICE,206 - Galicia,20,-34.615852000000004,-58.470907,2019-09-18 03:01:56.945040-03:00,2019-09-18 03:00:20,1,False
336,0,"{'mechanical': 0, 'ebike': 0}",6,22,0,1,1,1,1568786351,False,IN_SERVICE,207 - PLAZA ARENALES,28,-34.599917299999994,-58.511415899999996,2019-09-18 03:01:56.945040-03:00,2019-09-18 02:59:11,2,False
337,3,"{'mechanical': 3, 'ebike': 0}",3,10,0,1,1,1,1568786240,False,IN_SERVICE,208 - Segui,16,-34.5985,-58.4613,2019-09-18 03:01:56.945040-03:00,2019-09-18 02:57:20,4,False
338,2,"{'mechanical': 2, 'ebike': 0}",2,12,0,1,1,1,1568786426,False,IN_SERVICE,210 - Terrero,16,-34.602931,-58.479420999999995,2019-09-18 03:01:56.945040-03:00,2019-09-18 03:00:26,1,False
339,1,"{'mechanical': 1, 'ebike': 0}",2,13,0,1,1,1,1568786306,False,IN_SERVICE,211 - ARANGUREN Y SEGUI,16,-34.61938,-58.45471,2019-09-18 03:01:56.945040-03:00,2019-09-18 02:58:26,3,False
340,5,"{'mechanical': 5, 'ebike': 0}",1,5,0,1,1,1,1568786259,False,IN_SERVICE,214 - Flores,12,-34.626242,-58.46732900000001,2019-09-18 03:01:56.945040-03:00,2019-09-18 02:57:39,4,False
341,3,"{'mechanical': 3, 'ebike': 0}",0,13,0,1,1,1,1568786325,False,IN_SERVICE,216 - Margariños Cervantes y Argerich,16,-34.6142336,-58.4813858,2019-09-18 03:01:56.945040-03:00,2019-09-18 02:58:45,3,False
342,7,"{'mechanical': 7, 'ebike': 0}",4,9,1,1,1,1,1568786293,False,IN_SERVICE,218 - Campana,20,-34.616813,-58.484297,2019-09-18 03:01:56.945040-03:00,2019-09-18 02:58:13,3,False
343,1,"{'mechanical': 1, 'ebike': 0}",4,15,0,1,1,1,1568786248,False,IN_SERVICE,219 - Parque Chacabuco II,20,-34.635727200000005,-58.4411639,2019-09-18 03:01:56.945040-03:00,2019-09-18 02:57:28,4,False
345,0,"{'mechanical': 0, 'ebike': 0}",1,19,0,1,1,1,1568786279,False,IN_SERVICE,226 - Parque La Paternal,20,-34.594776200000005,-58.4750615,2019-09-18 03:01:56.945040-03:00,2019-09-18 02:57:59,3,False
347,3,"{'mechanical': 3, 'ebike': 0}",0,17,0,1,1,1,1568785293,False,IN_SERVICE,230 - Parque Las Heras II,20,-34.5834356,-58.4065391,2019-09-18 03:01:56.945040-03:00,2019-09-18 02:41:33,20,True
348,2,"{'mechanical': 2, 'ebike': 0}",5,9,0,1,1,1,1568786353,False,IN_SERVICE,231 - Margariños Cervantes,16,-34.610482,-58.474368999999996,2019-09-18 03:01:56.945040-03:00,2019-09-18 02:59:13,2,False
349,1,"{'mechanical': 1, 'ebike': 0}",3,16,0,1,1,1,1568786405,False,IN_SERVICE,232 - Sucre y Martinez,20,-34.570894,-58.46688399999999,2019-09-18 03:01:56.945040-03:00,2019-09-18 03:00:05,1,False
350,1,"{'mechanical': 1, 'ebike': 0}",4,15,0,1,1,1,1568786376,False,IN_SERVICE,234 - Valdenegro,20,-34.567996,-58.485145499999994,2019-09-18 03:01:56.945040-03:00,2019-09-18 02:59:36,2,False
351,0,"{'mechanical': 0, 'ebike': 0}",2,14,0,1,1,1,1568786254,False,IN_SERVICE,235 - Colegiales,16,-34.5717033,-58.4520772,2019-09-18 03:01:56.945040-03:00,2019-09-18 02:57:34,4,False
352,0,"{'mechanical': 0, 'ebike': 0}",4,24,0,1,1,1,1568786262,False,IN_SERVICE,236 - Guemes,28,-34.5807104,-58.4248291,2019-09-18 03:01:56.945040-03:00,2019-09-18 02:57:42,4,False
353,0,"{'mechanical': 0, 'ebike': 0}",0,20,0,1,1,1,1568786275,False,IN_SERVICE,237 - Madero Office,20,-34.5986779,-58.364725899999996,2019-09-18 03:01:56.945040-03:00,2019-09-18 02:57:55,4,False
354,3,"{'mechanical': 3, 'ebike': 0}",1,16,0,1,1,1,1568786427,False,IN_SERVICE,241 - Sanatorio Mendez,20,-34.613457000000004,-58.4401581,2019-09-18 03:01:56.945040-03:00,2019-09-18 03:00:27,1,False
355,0,"{'mechanical': 0, 'ebike': 0}",0,16,0,1,1,1,1568786433,False,IN_SERVICE,242 - Plazoleta Rafael del Riego,16,-34.567504799999995,-58.4465088,2019-09-18 03:01:56.945040-03:00,2019-09-18 03:00:33,1,False
356,1,"{'mechanical': 1, 'ebike': 0}",0,15,0,1,1,1,1568785990,False,IN_SERVICE,245 - Arribeños,16,-34.547695000000004,-58.4584684,2019-09-18 03:01:56.945040-03:00,2019-09-18 02:53:10,8,False
358,0,"{'mechanical': 0, 'ebike': 0}",2,10,0,1,1,1,1568786283,False,IN_SERVICE,249 - Balbín,12,-34.561546500000006,-58.4655255,2019-09-18 03:01:56.945040-03:00,2019-09-18 02:58:03,3,False
359,0,"{'mechanical': 0, 'ebike': 0}",0,20,0,1,1,1,1568786479,False,IN_SERVICE,250 - Fleni,20,-34.555654,-58.4504687,2019-09-18 03:01:56.945040-03:00,2019-09-18 03:01:19,0,False
361,0,"{'mechanical': 0, 'ebike': 0}",4,16,0,1,1,1,1568786282,False,IN_SERVICE,258 - Plaza J.J. Paso,20,-34.569146999999994,-58.453731999999995,2019-09-18 03:01:56.945040-03:00,2019-09-18 02:58:02,3,False
362,0,"{'mechanical': 0, 'ebike': 0}",9,7,0,1,1,1,1568786451,False,IN_SERVICE,262 - Holmberg,16,-34.566746,-58.479108,2019-09-18 03:01:56.945040-03:00,2019-09-18 03:00:51,1,False
363,6,"{'mechanical': 6, 'ebike': 0}",1,21,0,1,1,1,1568786273,False,IN_SERVICE,354 - Plaza Tupac Amaru,28,-34.642052,-58.46205,2019-09-18 03:01:56.945040-03:00,2019-09-18 02:57:53,4,False
364,2,"{'mechanical': 2, 'ebike': 0}",1,21,0,1,1,1,1568786379,False,IN_SERVICE,381 - Matienzo Y Arce,24,-34.568721999999994,-58.43438100000001,2019-09-18 03:01:56.945040-03:00,2019-09-18 02:59:39,2,False
366,0,"{'mechanical': 0, 'ebike': 0}",3,17,0,1,1,1,1568786414,False,IN_SERVICE,360 - Plaza Ramon Falcon,20,-34.635402,-58.482602,2019-09-18 03:01:56.945040-03:00,2019-09-18 03:00:14,1,False
367,7,"{'mechanical': 7, 'ebike': 0}",3,6,0,1,1,1,1568786405,False,IN_SERVICE,287 - Belaustegui,16,-34.6163487,-58.477241799999994,2019-09-18 03:01:56.945040-03:00,2019-09-18 03:00:05,1,False
368,0,"{'mechanical': 0, 'ebike': 0}",0,1,0,1,1,1,1568749739,False,IN_SERVICE,351 - Plaza De Los Periodistas,1,-34.621153,-58.47375,2019-09-18 03:01:56.945040-03:00,2019-09-17 16:48:59,612,True
369,12,"{'mechanical': 12, 'ebike': 0}",5,3,0,1,1,1,1568786335,False,IN_SERVICE,304 - Navarro,20,-34.592244,-58.491797,2019-09-18 03:01:56.945040-03:00,2019-09-18 02:58:55,3,False
370,2,"{'mechanical': 2, 'ebike': 0}",9,9,0,1,1,1,1568786396,False,IN_SERVICE,305 - Plaza Martin Rodriguez,20,-34.590964,-58.500336,2019-09-18 03:01:56.945040-03:00,2019-09-18 02:59:56,2,False
371,1,"{'mechanical': 1, 'ebike': 0}",1,14,0,1,1,1,1568786489,False,IN_SERVICE,269 - Plaza De La Misericordia,16,-34.63281,-58.455057999999994,2019-09-18 03:01:56.945040-03:00,2019-09-18 03:01:29,0,False
372,5,"{'mechanical': 5, 'ebike': 0}",0,7,0,1,1,1,1568786455,False,IN_SERVICE,322 - MARTÍ Y DIRECTORIO,12,-34.636406,-58.470136,2019-09-18 03:01:56.945040-03:00,2019-09-18 03:00:55,1,False
373,16,"{'mechanical': 16, 'ebike': 0}",0,0,0,1,1,1,1568786298,False,IN_SERVICE,265 - Plaza Exodo Jujeño,16,-34.582488899999994,-58.481028599999995,2019-09-18 03:01:56.945040-03:00,2019-09-18 02:58:18,3,False
374,6,"{'mechanical': 6, 'ebike': 0}",8,2,0,1,1,1,1568786380,False,IN_SERVICE,367 - Mariano Castex,16,-34.645764,-58.4573968,2019-09-18 03:01:56.945040-03:00,2019-09-18 02:59:40,2,False
375,0,"{'mechanical': 0, 'ebike': 0}",0,16,0,1,1,1,1568786461,False,IN_SERVICE,301 - Arregui Y Terrada,16,-34.6050537,-58.4847864,2019-09-18 03:01:56.945040-03:00,2019-09-18 03:01:01,0,False
376,4,"{'mechanical': 4, 'ebike': 0}",8,8,0,1,1,1,1568786253,False,IN_SERVICE,324 - Las Victorias,20,-34.626698,-58.487135200000004,2019-09-18 03:01:56.945040-03:00,2019-09-18 02:57:33,4,False
377,0,"{'mechanical': 0, 'ebike': 0}",1,15,1,1,1,1,1568786286,False,IN_SERVICE,327 - ACUÑA DE FIGUEROA Y POTOSI,16,-34.607333000000004,-58.422987,2019-09-18 03:01:56.945040-03:00,2019-09-18 02:58:06,3,False
378,1,"{'mechanical': 1, 'ebike': 0}",7,12,0,1,1,1,1568786276,False,IN_SERVICE,215 - HOSPITAL ALVAREZ,20,-34.623123,-58.468287,2019-09-18 03:01:56.945040-03:00,2019-09-18 02:57:56,4,False
379,0,"{'mechanical': 0, 'ebike': 0}",3,17,0,1,1,1,1568786403,False,IN_SERVICE,390 - De Los Ombues,20,-34.560162,-58.428163,2019-09-18 03:01:56.945040-03:00,2019-09-18 03:00:03,1,False
380,7,"{'mechanical': 7, 'ebike': 0}",3,10,2,1,1,1,1568786388,False,IN_SERVICE,319 - Cervantes y Trelles,20,-34.60603820000001,-58.46481,2019-09-18 03:01:56.945040-03:00,2019-09-18 02:59:48,2,False
381,2,"{'mechanical': 2, 'ebike': 0}",0,14,0,1,1,1,1568786276,False,IN_SERVICE,274 - Plaza Nuestra Señora de la Asuncion,16,-34.6153,-58.4665179,2019-09-18 03:01:56.945040-03:00,2019-09-18 02:57:56,4,False
382,0,"{'mechanical': 0, 'ebike': 0}",5,11,0,1,1,1,1568786274,False,IN_SERVICE,204 - Biarritz,16,-34.605452,-58.477426,2019-09-18 03:01:56.945040-03:00,2019-09-18 02:57:54,4,False
383,0,"{'mechanical': 0, 'ebike': 0}",5,15,0,1,1,1,1568786252,False,IN_SERVICE,263 - Plaza Echeverria,20,-34.571621,-58.489026,2019-09-18 03:01:56.945040-03:00,2019-09-18 02:57:32,4,False
384,14,"{'mechanical': 14, 'ebike': 0}",0,2,0,1,1,1,1568786436,False,IN_SERVICE,267 - Plaza 25 De Agosto,16,-34.579734,-58.46185229999999,2019-09-18 03:01:56.945040-03:00,2019-09-18 03:00:36,1,False
385,4,"{'mechanical': 4, 'ebike': 0}",3,9,0,1,1,1,1568786391,False,IN_SERVICE,268 - Plaza Aristóbulo Del Valle,16,-34.6061187,-58.493419200000005,2019-09-18 03:01:56.945040-03:00,2019-09-18 02:59:51,2,False
386,1,"{'mechanical': 1, 'ebike': 0}",3,4,0,1,1,1,1568786335,False,IN_SERVICE,277 - Coghlan,8,-34.5656428,-58.475512,2019-09-18 03:01:56.945040-03:00,2019-09-18 02:58:55,3,False
387,0,"{'mechanical': 0, 'ebike': 0}",1,15,0,1,1,1,1568786486,False,IN_SERVICE,278 - Donato Alvarez,16,-34.6019716,-58.465530099999995,2019-09-18 03:01:56.945040-03:00,2019-09-18 03:01:26,0,False
388,0,"{'mechanical': 0, 'ebike': 0}",1,19,0,1,1,1,1568786385,False,IN_SERVICE,279 - Andonaegui,20,-34.580927,-58.48455,2019-09-18 03:01:56.945040-03:00,2019-09-18 02:59:45,2,False
389,2,"{'mechanical': 2, 'ebike': 0}",2,16,0,1,1,1,1568786249,False,IN_SERVICE,286 - OEA,20,-34.62795,-58.44024,2019-09-18 03:01:56.945040-03:00,2019-09-18 02:57:29,4,False
390,0,"{'mechanical': 0, 'ebike': 0}",1,19,0,1,1,1,1568786425,False,IN_SERVICE,288- 11 de septiembre,20,-34.547758,-58.459881,2019-09-18 03:01:56.945040-03:00,2019-09-18 03:00:25,1,False
391,1,"{'mechanical': 1, 'ebike': 0}",0,19,0,1,1,1,1568786283,False,IN_SERVICE,295 - Larralde,20,-34.5508944,-58.4719176,2019-09-18 03:01:56.945040-03:00,2019-09-18 02:58:03,3,False
392,6,"{'mechanical': 6, 'ebike': 0}",5,5,0,1,1,1,1568786288,False,IN_SERVICE,297 - TRONADOR Y GARCÍA DEL RÍO,16,-34.554753999999996,-58.48541899999999,2019-09-18 03:01:56.945040-03:00,2019-09-18 02:58:08,3,False
393,2,"{'mechanical': 2, 'ebike': 0}",0,10,0,1,1,1,1568786484,False,IN_SERVICE,300 - Jose Artigas,12,-34.590848,-58.468534999999996,2019-09-18 03:01:56.945040-03:00,2019-09-18 03:01:24,0,False
394,14,"{'mechanical': 14, 'ebike': 0}",6,0,2,1,1,1,1568786307,False,IN_SERVICE,302 - Plaza Jose Marti,20,-34.649578000000005,-58.462646,2019-09-18 03:01:56.945040-03:00,2019-09-18 02:58:27,3,False
395,1,"{'mechanical': 1, 'ebike': 0}",0,15,0,1,1,1,1568786454,False,IN_SERVICE,303 - Huaura,16,-34.596803799999996,-58.453568700000005,2019-09-18 03:01:56.945040-03:00,2019-09-18 03:00:54,1,False
396,15,"{'mechanical': 15, 'ebike': 0}",1,4,0,1,1,1,1568786442,False,IN_SERVICE,306 - Tres Arroyos Y Olaya,20,-34.601852,-58.448011,2019-09-18 03:01:56.945040-03:00,2019-09-18 03:00:42,1,False
397,3,"{'mechanical': 3, 'ebike': 0}",0,9,0,1,1,1,1568786300,False,IN_SERVICE,308 - Artigas Y Melincue,12,-34.5979984,-58.4856262,2019-09-18 03:01:56.945040-03:00,2019-09-18 02:58:20,3,False
398,0,"{'mechanical': 0, 'ebike': 0}",2,14,0,1,1,1,1568786359,False,IN_SERVICE,310 - Gregoria Perez,16,-34.57618170000001,-58.45465079999999,2019-09-18 03:01:56.945040-03:00,2019-09-18 02:59:19,2,False
399,1,"{'mechanical': 1, 'ebike': 0}",8,11,0,1,1,1,1568786449,False,IN_SERVICE,312 - Parque Chacabuco  I,20,-34.6340414,-58.446273,2019-09-18 03:01:56.945040-03:00,2019-09-18 03:00:49,1,False
400,3,"{'mechanical': 3, 'ebike': 0}",1,12,0,1,1,1,1568786249,False,IN_SERVICE,313 - De Los Incas,16,-34.579751,-58.471003,2019-09-18 03:01:56.945040-03:00,2019-09-18 02:57:29,4,False
401,2,"{'mechanical': 2, 'ebike': 0}",2,16,1,1,1,1,1568786304,False,IN_SERVICE,314 - Ramón Falcon,20,-34.63476179999999,-58.4795922,2019-09-18 03:01:56.945040-03:00,2019-09-18 02:58:24,3,False
402,1,"{'mechanical': 1, 'ebike': 0}",1,14,0,1,1,1,1568786420,False,IN_SERVICE,315 - BEIRO Y SAN MARTÍN,16,-34.597612100000006,-58.4985424,2019-09-18 03:01:56.945040-03:00,2019-09-18 03:00:20,1,False
404,0,"{'mechanical': 0, 'ebike': 0}",1,19,0,1,1,1,1568786470,False,IN_SERVICE,317 - Cero Más Infinito,20,-34.543949,-58.4408983,2019-09-18 03:01:56.945040-03:00,2019-09-18 03:01:10,0,False
405,4,"{'mechanical': 4, 'ebike': 0}",0,16,0,1,1,1,1568786451,False,IN_SERVICE,318 - Plaza Y Carbajal,20,-34.5767497,-58.468977100000004,2019-09-18 03:01:56.945040-03:00,2019-09-18 03:00:51,1,False
406,0,"{'mechanical': 0, 'ebike': 0}",0,16,0,1,1,1,1568786391,False,IN_SERVICE,326 - Emma De La Barra,16,-34.6009283,-58.3642613,2019-09-18 03:01:56.945040-03:00,2019-09-18 02:59:51,2,False
407,5,"{'mechanical': 5, 'ebike': 0}",6,17,9,1,1,1,1568786365,False,IN_SERVICE,330 - Parque Avellaneda,28,-34.6413273,-58.47995039999999,2019-09-18 03:01:56.945040-03:00,2019-09-18 02:59:25,2,False
408,15,"{'mechanical': 15, 'ebike': 0}",1,4,0,1,1,1,1568786397,False,IN_SERVICE,337 - UTN,20,-34.6600076,-58.4683699,2019-09-18 03:01:56.945040-03:00,2019-09-18 02:59:57,1,False
409,10,"{'mechanical': 10, 'ebike': 0}",0,14,1,1,1,1,1568786366,False,IN_SERVICE,339 - AMANCIO ALCORTA,24,-34.654801,-58.412878000000006,2019-09-18 03:01:56.945040-03:00,2019-09-18 02:59:26,2,False
411,0,"{'mechanical': 0, 'ebike': 0}",5,7,0,1,1,1,1568786462,False,IN_SERVICE,368 - Ensenada,12,-34.63858079999999,-58.476985600000006,2019-09-18 03:01:56.945040-03:00,2019-09-18 03:01:02,0,False
412,15,"{'mechanical': 15, 'ebike': 0}",1,0,2,1,1,1,1568786330,False,IN_SERVICE,372 - Villa Soldati,16,-34.6626285,-58.4411434,2019-09-18 03:01:56.945040-03:00,2019-09-18 02:58:50,3,False
413,11,"{'mechanical': 11, 'ebike': 0}",4,1,0,1,1,1,1568786338,False,IN_SERVICE,382 - CMD,16,-34.654573600000006,-58.379346,2019-09-18 03:01:56.945040-03:00,2019-09-18 02:58:58,2,False
414,0,"{'mechanical': 0, 'ebike': 0}",5,15,0,1,1,1,1568786442,False,IN_SERVICE,385 - Franklin,20,-34.607731,-58.438304099999996,2019-09-18 03:01:56.945040-03:00,2019-09-18 03:00:42,1,False
415,15,"{'mechanical': 15, 'ebike': 0}",3,2,0,1,1,1,1568786244,False,IN_SERVICE,386 - Gavilan Y Vallese,20,-34.6203961,-58.46371460000001,2019-09-18 03:01:56.945040-03:00,2019-09-18 02:57:24,4,False
416,1,"{'mechanical': 1, 'ebike': 0}",9,18,0,1,1,1,1568786367,False,IN_SERVICE,257 - Plaza Francisco Ramirez,28,-34.5532664,-58.469072,2019-09-18 03:01:56.945040-03:00,2019-09-18 02:59:27,2,False
417,0,"{'mechanical': 0, 'ebike': 0}",1,19,0,1,1,1,1568786241,False,IN_SERVICE,328 - Centro Cultural San Martin,20,-34.6053524,-58.3880338,2019-09-18 03:01:56.945040-03:00,2019-09-18 02:57:21,4,False
418,0,"{'mechanical': 0, 'ebike': 0}",0,20,0,1,1,1,1568786382,False,IN_SERVICE,345 - Plaza Mafalda,20,-34.580773,-58.444613600000004,2019-09-18 03:01:56.945040-03:00,2019-09-18 02:59:42,2,False
419,5,"{'mechanical': 5, 'ebike': 0}",3,20,1,1,1,1,1568786373,False,IN_SERVICE,359 - Plaza Balcarce,28,-34.547672999999996,-58.467851,2019-09-18 03:01:56.945040-03:00,2019-09-18 02:59:33,2,False
420,0,"{'mechanical': 0, 'ebike': 0}",2,18,0,1,1,1,1568786487,False,IN_SERVICE,375 - Ciudad Universitaria I,20,-34.5440696,-58.4390434,2019-09-18 03:01:56.945040-03:00,2019-09-18 03:01:27,0,False
421,0,"{'mechanical': 0, 'ebike': 0}",0,12,0,1,1,1,1568786478,False,IN_SERVICE,376 - Ciudad Universitaria II,12,-34.5419013,-58.4438699,2019-09-18 03:01:56.945040-03:00,2019-09-18 03:01:18,0,False
422,0,"{'mechanical': 0, 'ebike': 0}",6,22,0,1,1,1,1568786396,False,IN_SERVICE,377 - Ciudad Universitaria III,28,-34.540989200000006,-58.4442786,2019-09-18 03:01:56.945040-03:00,2019-09-18 02:59:56,2,False
424,3,"{'mechanical': 3, 'ebike': 0}",3,10,0,1,1,1,1568786326,False,IN_SERVICE,387 - Luna,16,-34.638584,-58.399682999999996,2019-09-18 03:01:56.945040-03:00,2019-09-18 02:58:46,3,False
425,2,"{'mechanical': 2, 'ebike': 0}",4,10,0,1,1,1,1568786364,False,IN_SERVICE,394 - Av. La Plata,16,-34.644076299999995,-58.422091,2019-09-18 03:01:56.945040-03:00,2019-09-18 02:59:24,2,False
426,1,"{'mechanical': 1, 'ebike': 0}",6,13,0,1,1,1,1568786302,False,IN_SERVICE,396 - PLAZA ALBERTI,20,-34.555582,-58.457962,2019-09-18 03:01:56.945040-03:00,2019-09-18 02:58:22,3,False
427,6,"{'mechanical': 6, 'ebike': 0}",8,10,0,1,1,1,1568786311,False,IN_SERVICE,397 - PLAZA MATHEU,24,-34.64072,-58.367461,2019-09-18 03:01:56.945040-03:00,2019-09-18 02:58:31,3,False
428,3,"{'mechanical': 3, 'ebike': 0}",0,17,0,1,1,1,1568786487,False,IN_SERVICE,225 - HOSPITAL TORNU,20,-34.587458000000005,-58.4739506,2019-09-18 03:01:56.945040-03:00,2019-09-18 03:01:27,0,False
429,13,"{'mechanical': 13, 'ebike': 0}",3,4,0,1,1,1,1568786378,False,IN_SERVICE,201 - PEPIRI,20,-34.6522282,-58.407836100000004,2019-09-18 03:01:56.945040-03:00,2019-09-18 02:59:38,2,False
430,8,"{'mechanical': 8, 'ebike': 0}",4,0,0,1,1,1,1568785783,False,IN_SERVICE,037 - Claudia Pia Braudacco,12,-34.607981,-58.377885600000006,2019-09-18 03:01:56.945040-03:00,2019-09-18 02:49:43,12,True
431,1,"{'mechanical': 1, 'ebike': 0}",1,18,0,1,1,1,1568786331,False,IN_SERVICE,362 - PARQUE DE LA MEMORIA,20,-34.5430055,-58.4361167,2019-09-18 03:01:56.945040-03:00,2019-09-18 02:58:51,3,False
432,0,"{'mechanical': 0, 'ebike': 0}",0,20,0,1,1,1,1568786482,False,IN_SERVICE,187 - Jose Maria Moreno,20,-34.620249,-58.435877000000005,2019-09-18 03:01:56.945040-03:00,2019-09-18 03:01:22,0,False
433,3,"{'mechanical': 3, 'ebike': 0}",7,10,0,1,1,1,1568786253,False,IN_SERVICE,273 - Plazoleta Colombia,20,-34.637491,-58.373638,2019-09-18 03:01:56.945040-03:00,2019-09-18 02:57:33,4,False
434,2,"{'mechanical': 2, 'ebike': 0}",1,9,0,1,1,1,1568786281,False,IN_SERVICE,247 - Plaza Lucio Demare,12,-34.5457258,-58.4650865,2019-09-18 03:01:56.945040-03:00,2019-09-18 02:58:01,3,False
435,0,"{'mechanical': 0, 'ebike': 0}",2,14,0,1,1,1,1568786395,False,IN_SERVICE,227 -Club Ciudad de Buenos Aires,16,-34.544597100000004,-58.4595541,2019-09-18 03:01:56.945040-03:00,2019-09-18 02:59:55,2,False
436,1,"{'mechanical': 1, 'ebike': 0}",0,27,0,1,1,1,1568786400,False,IN_SERVICE,253 - Plaza Colegiales,28,-34.5782972,-58.4450299,2019-09-18 03:01:56.945040-03:00,2019-09-18 03:00:00,1,False
441,0,"{'mechanical': 0, 'ebike': 0}",3,17,1,1,1,1,1568786387,False,IN_SERVICE,016 - Legislatura,20,-34.61001199,-58.3749195,2019-09-18 03:01:56.945040-03:00,2019-09-18 02:59:47,2,False
442,0,"{'mechanical': 0, 'ebike': 0}",1,15,0,1,1,1,1568786379,False,IN_SERVICE,048 - Perón,16,-34.605619399999995,-58.371607,2019-09-18 03:01:56.945040-03:00,2019-09-18 02:59:39,2,False
443,4,"{'mechanical': 4, 'ebike': 0}",2,12,0,1,1,1,1568786206,False,IN_SERVICE,081 -Balcarce,18,-34.6157533,-58.3706184,2019-09-18 03:01:56.945040-03:00,2019-09-18 02:56:46,5,False
444,0,"{'mechanical': 0, 'ebike': 0}",1,23,0,1,1,1,1568786274,False,IN_SERVICE,061-Ministerio de Economia,24,-34.608678000000005,-58.371008200000006,2019-09-18 03:01:56.945040-03:00,2019-09-18 02:57:54,4,False
448,6,"{'mechanical': 6, 'ebike': 0}",2,7,2,1,1,1,1568786249,False,IN_SERVICE,393 - Barrio 31,16,-34.582618,-58.3787309,2019-09-18 03:01:56.945040-03:00,2019-09-18 02:57:29,4,False
449,5,"{'mechanical': 5, 'ebike': 0}",1,18,0,1,1,1,1568786439,False,IN_SERVICE,352 - San Jose de Flores,24,-34.6289374,-58.463660600000004,2019-09-18 03:01:56.945040-03:00,2019-09-18 03:00:39,1,False
450,198,"{'mechanical': 99, 'ebike': 99}",0,99,0,1,1,1,1567199965,False,IN_SERVICE,teste ecobici - 450,1,-23.5563617,-46.6625619,2019-09-18 03:01:56.945040-03:00,2019-08-30 18:19:25,26442,True
451,198,"{'mechanical': 99, 'ebike': 99}",0,99,0,1,1,1,1568241592,False,IN_SERVICE,teste ecobici - 451,1,45.556853600000004,-73.4941693,2019-09-18 03:01:56.945040-03:00,2019-09-11 19:39:52,9082,True
2,0,"{'mechanical': 0, 'ebike': 0}",2,18,0,1,1,1,1568836901,False,IN_SERVICE,002 - Retiro I,20,-34.59242329999999,-58.37471510000001,2019-09-18 17:02:49.013564-03:00,2019-09-18 17:01:41,1,False
3,0,"{'mechanical': 0, 'ebike': 0}",5,15,0,1,1,1,1568836772,False,IN_SERVICE,003 - ADUANA,20,-34.611032,-58.3682604,2019-09-18 17:02:49.013564-03:00,2019-09-18 16:59:32,3,False
4,0,"{'mechanical': 0, 'ebike': 0}",6,14,0,1,1,1,1568836967,False,IN_SERVICE,004 - Plaza Roma,20,-34.6017255,-58.368762800000006,2019-09-18 17:02:49.013564-03:00,2019-09-18 17:02:47,0,False
5,0,"{'mechanical': 0, 'ebike': 0}",2,40,0,1,1,1,1568836825,False,IN_SERVICE,005 - Plaza Italia,42,-34.580549700000006,-58.420954200000004,2019-09-18 17:02:49.013564-03:00,2019-09-18 17:00:25,2,False
6,1,"{'mechanical': 1, 'ebike': 0}",7,12,1,1,1,1,1568836807,False,IN_SERVICE,006 - Parque Lezama,20,-34.628526,-58.369758,2019-09-18 17:02:49.013564-03:00,2019-09-18 17:00:07,2,False
7,1,"{'mechanical': 1, 'ebike': 0}",0,15,0,1,1,1,1568836727,False,IN_SERVICE,007 - OBELISCO,16,-34.606497999999995,-58.381098,2019-09-18 17:02:49.013564-03:00,2019-09-18 16:58:47,4,False
8,1,"{'mechanical': 1, 'ebike': 0}",0,23,1,1,1,1,1568836813,False,IN_SERVICE,008 - Congreso,24,-34.6094218,-58.3893364,2019-09-18 17:02:49.013564-03:00,2019-09-18 17:00:13,2,False
9,0,"{'mechanical': 0, 'ebike': 0}",1,22,0,1,1,1,1568836781,False,IN_SERVICE,009 - Parque Las Heras,24,-34.585443,-58.407741,2019-09-18 17:02:49.013564-03:00,2019-09-18 16:59:41,3,False
11,0,"{'mechanical': 0, 'ebike': 0}",5,15,0,1,1,1,1568836776,False,IN_SERVICE,011 - Tribunales,20,-34.601176200000005,-58.3850791,2019-09-18 17:02:49.013564-03:00,2019-09-18 16:59:36,3,False
12,0,"{'mechanical': 0, 'ebike': 0}",1,15,0,1,1,1,1568836796,False,IN_SERVICE,012 - Plaza Vicente Lopez,16,-34.5927096,-58.38880699999999,2019-09-18 17:02:49.013564-03:00,2019-09-18 16:59:56,2,False
13,1,"{'mechanical': 1, 'ebike': 0}",1,28,0,1,1,1,1568836880,False,IN_SERVICE,013 - ONCE,30,-34.61009,-58.406000000000006,2019-09-18 17:02:49.013564-03:00,2019-09-18 17:01:20,1,False
14,0,"{'mechanical': 0, 'ebike': 0}",0,30,1,1,1,1,1568836810,False,IN_SERVICE,014 - Pacifico,30,-34.577424,-58.426387,2019-09-18 17:02:49.013564-03:00,2019-09-18 17:00:10,2,False
15,0,"{'mechanical': 0, 'ebike': 0}",1,19,0,1,1,1,1568836891,False,IN_SERVICE,015 - JUANA MANSO II,20,-34.6004,-58.3636706,2019-09-18 17:02:49.013564-03:00,2019-09-18 17:01:31,1,False
17,2,"{'mechanical': 2, 'ebike': 0}",0,18,1,1,1,1,1568836968,False,IN_SERVICE,017 - Plaza Almagro,20,-34.606410100000005,-58.418730599999996,2019-09-18 17:02:49.013564-03:00,2019-09-18 17:02:48,0,False
19,0,"{'mechanical': 0, 'ebike': 0}",1,23,1,1,1,1,1568836946,False,IN_SERVICE,019 - PLAZA SAN MARTIN,24,-34.5956027,-58.3776353,2019-09-18 17:02:49.013564-03:00,2019-09-18 17:02:26,0,False
20,0,"{'mechanical': 0, 'ebike': 0}",2,18,0,1,1,1,1568836908,False,IN_SERVICE,020 - Distrito Audiovisual,20,-34.5798619,-58.44177560000001,2019-09-18 17:02:49.013564-03:00,2019-09-18 17:01:48,1,False
21,0,"{'mechanical': 0, 'ebike': 0}",5,17,0,1,1,1,1568836779,False,IN_SERVICE,021 - Parque Patricios,24,-34.63968320000001,-58.4062115,2019-09-18 17:02:49.013564-03:00,2019-09-18 16:59:39,3,False
22,0,"{'mechanical': 0, 'ebike': 0}",1,19,0,1,1,1,1568836910,False,IN_SERVICE,022 - Arenales,20,-34.5938629,-58.3825498,2019-09-18 17:02:49.013564-03:00,2019-09-18 17:01:50,0,False
23,0,"{'mechanical': 0, 'ebike': 0}",2,10,0,1,1,1,1568836957,False,IN_SERVICE,023 - Suipacha,12,-34.600309499999995,-58.3793463,2019-09-18 17:02:49.013564-03:00,2019-09-18 17:02:37,0,False
24,0,"{'mechanical': 0, 'ebike': 0}",5,13,0,1,1,1,1568836736,False,IN_SERVICE,024 - ALSINA,18,-34.610583,-58.380894299999994,2019-09-18 17:02:49.013564-03:00,2019-09-18 16:58:56,3,False
25,0,"{'mechanical': 0, 'ebike': 0}",0,24,0,1,1,1,1568836854,False,IN_SERVICE,025 - Plaza Guemes,24,-34.5894269,-58.416117799999995,2019-09-18 17:02:49.013564-03:00,2019-09-18 17:00:54,1,False
26,0,"{'mechanical': 0, 'ebike': 0}",0,24,0,1,1,1,1568836787,False,IN_SERVICE,026 - JUANA MANSO I,24,-34.600460600000005,-58.3636593,2019-09-18 17:02:49.013564-03:00,2019-09-18 16:59:47,3,False
27,0,"{'mechanical': 0, 'ebike': 0}",2,14,0,1,1,1,1568836884,False,IN_SERVICE,027 - Montevideo,16,-34.599068,-58.3900887,2019-09-18 17:02:49.013564-03:00,2019-09-18 17:01:24,1,False
28,0,"{'mechanical': 0, 'ebike': 0}",0,20,0,1,1,1,1568836766,False,IN_SERVICE,028 - Plaza Boedo,20,-34.6231273,-58.4127377,2019-09-18 17:02:49.013564-03:00,2019-09-18 16:59:26,3,False
29,1,"{'mechanical': 1, 'ebike': 0}",3,26,0,1,1,1,1568836759,False,IN_SERVICE,029 - Parque Centenario,30,-34.6079414,-58.4335573,2019-09-18 17:02:49.013564-03:00,2019-09-18 16:59:19,3,False
30,0,"{'mechanical': 0, 'ebike': 0}",4,16,1,1,1,1,1568836797,False,IN_SERVICE,030 - Peña,20,-34.5908211,-58.3973698,2019-09-18 17:02:49.013564-03:00,2019-09-18 16:59:57,2,False
31,1,"{'mechanical': 1, 'ebike': 0}",3,16,0,1,1,1,1568836910,False,IN_SERVICE,031 - Padilla,20,-34.6032081,-58.43964570000001,2019-09-18 17:02:49.013564-03:00,2019-09-18 17:01:50,0,False
32,0,"{'mechanical': 0, 'ebike': 0}",2,14,0,1,1,1,1568836759,False,IN_SERVICE,032 - Catedral,16,-34.60720739999999,-58.37359839999999,2019-09-18 17:02:49.013564-03:00,2019-09-18 16:59:19,3,False
33,5,"{'mechanical': 5, 'ebike': 0}",2,13,0,1,1,1,1568826421,False,IN_SERVICE,033 - Facultad de Medicina,20,-34.5970909,-58.3989807,2019-09-18 17:02:49.013564-03:00,2019-09-18 14:07:01,175,True
36,0,"{'mechanical': 0, 'ebike': 0}",2,14,0,1,1,1,1568836888,False,IN_SERVICE,036 - MAIPÚ,16,-34.6045481,-58.3767677,2019-09-18 17:02:49.013564-03:00,2019-09-18 17:01:28,1,False
38,0,"{'mechanical': 0, 'ebike': 0}",1,19,0,1,1,1,1568836904,False,IN_SERVICE,038 - Plaza Libertad,20,-34.59704970000001,-58.38284029999999,2019-09-18 17:02:49.013564-03:00,2019-09-18 17:01:44,1,False
39,0,"{'mechanical': 0, 'ebike': 0}",3,17,0,1,1,1,1568836783,False,IN_SERVICE,039 - CONGRESO II,20,-34.6092213,-58.38769250000001,2019-09-18 17:02:49.013564-03:00,2019-09-18 16:59:43,3,False
40,1,"{'mechanical': 1, 'ebike': 0}",1,14,0,1,1,1,1568836837,False,IN_SERVICE,040 - Sarmiento,16,-34.604461,-58.373499,2019-09-18 17:02:49.013564-03:00,2019-09-18 17:00:37,2,False
41,2,"{'mechanical': 2, 'ebike': 0}",1,17,0,1,1,1,1568836763,False,IN_SERVICE,041 - Urquiza y Rondeau,20,-34.6364511,-58.4076348,2019-09-18 17:02:49.013564-03:00,2019-09-18 16:59:23,3,False
42,1,"{'mechanical': 1, 'ebike': 0}",1,22,0,1,1,1,1568836833,False,IN_SERVICE,042 - Diagonal Norte,24,-34.604447,-58.38003248,2019-09-18 17:02:49.013564-03:00,2019-09-18 17:00:33,2,False
43,0,"{'mechanical': 0, 'ebike': 0}",1,15,0,1,1,1,1568836926,False,IN_SERVICE,334 - CENTRO DE EXPOSICIONES,16,-34.583918,-58.3900194,2019-09-18 17:02:49.013564-03:00,2019-09-18 17:02:06,0,False
44,0,"{'mechanical': 0, 'ebike': 0}",0,20,0,1,1,1,1568836885,False,IN_SERVICE,044 - Ecoparque,20,-34.5755148,-58.413882900000004,2019-09-18 17:02:49.013564-03:00,2019-09-18 17:01:25,1,False
45,0,"{'mechanical': 0, 'ebike': 0}",0,20,0,1,1,1,1568836707,False,IN_SERVICE,045 - Uruguay,20,-34.6018635,-58.3866934,2019-09-18 17:02:49.013564-03:00,2019-09-18 16:58:27,4,False
46,0,"{'mechanical': 0, 'ebike': 0}",5,13,1,1,1,1,1568836968,False,IN_SERVICE,046 - Chile,18,-34.6163012,-58.37437489999999,2019-09-18 17:02:49.013564-03:00,2019-09-18 17:02:48,0,False
47,0,"{'mechanical': 0, 'ebike': 0}",3,13,0,1,1,1,1568836880,False,IN_SERVICE,047 - Colegio Nacional de Buenos Aires,16,-34.6117408,-58.3733149,2019-09-18 17:02:49.013564-03:00,2019-09-18 17:01:20,1,False
48,0,"{'mechanical': 0, 'ebike': 0}",2,14,1,1,1,1,1568836713,False,IN_SERVICE,034 - Colonia Express,16,-34.623937,-58.362004000000006,2019-09-18 17:02:49.013564-03:00,2019-09-18 16:58:33,4,False
49,9,"{'mechanical': 9, 'ebike': 0}",2,9,0,1,1,1,1568836949,False,IN_SERVICE,049 - 33 Orientales,20,-34.6290527,-58.422610999999996,2019-09-18 17:02:49.013564-03:00,2019-09-18 17:02:29,0,False
50,0,"{'mechanical': 0, 'ebike': 0}",0,20,0,1,1,1,1568836931,False,IN_SERVICE,050 - Hospital Rivadavia,20,-34.5837348,-58.4010798,2019-09-18 17:02:49.013564-03:00,2019-09-18 17:02:11,0,False
51,7,"{'mechanical': 7, 'ebike': 0}",1,4,2,1,1,1,1568836861,False,IN_SERVICE,051 - TUCUMAN,12,-34.6014776,-58.38212610000001,2019-09-18 17:02:49.013564-03:00,2019-09-18 17:01:01,1,False
52,0,"{'mechanical': 0, 'ebike': 0}",10,10,0,1,1,1,1568836857,False,IN_SERVICE,052 - SANCHEZ DE BUSTAMANTE,20,-34.606682,-58.414851,2019-09-18 17:02:49.013564-03:00,2019-09-18 17:00:57,1,False
53,0,"{'mechanical': 0, 'ebike': 0}",5,15,0,1,1,1,1568836918,False,IN_SERVICE,053 - Ricardo Rojas,20,-34.5952579,-58.374351399999995,2019-09-18 17:02:49.013564-03:00,2019-09-18 17:01:58,0,False
54,4,"{'mechanical': 4, 'ebike': 0}",2,14,0,1,1,1,1568836902,False,IN_SERVICE,054 - Acuña de Figueroa,20,-34.598118299999996,-58.42198440000001,2019-09-18 17:02:49.013564-03:00,2019-09-18 17:01:42,1,False
55,0,"{'mechanical': 0, 'ebike': 0}",4,16,0,1,1,1,1568836775,False,IN_SERVICE,055 - Bouchard,20,-34.5994122,-58.36966404,2019-09-18 17:02:49.013564-03:00,2019-09-18 16:59:35,3,False
56,0,"{'mechanical': 0, 'ebike': 0}",1,15,0,1,1,1,1568836758,False,IN_SERVICE,056 - Plaza Palermo Viejo,16,-34.588567,-58.425999,2019-09-18 17:02:49.013564-03:00,2019-09-18 16:59:18,3,False
57,0,"{'mechanical': 0, 'ebike': 0}",1,15,0,1,1,1,1568836922,False,IN_SERVICE,057 - BELGRANO,16,-34.6134468,-58.3706051,2019-09-18 17:02:49.013564-03:00,2019-09-18 17:02:02,0,False
58,0,"{'mechanical': 0, 'ebike': 0}",1,19,0,1,1,1,1568836831,False,IN_SERVICE,058 - Ministro Carranza,20,-34.575277299999996,-58.43468829999999,2019-09-18 17:02:49.013564-03:00,2019-09-18 17:00:31,2,False
59,0,"{'mechanical': 0, 'ebike': 0}",4,16,0,1,1,1,1568836944,False,IN_SERVICE,018 - Independencia,20,-34.617771000000005,-58.3804546,2019-09-18 17:02:49.013564-03:00,2019-09-18 17:02:24,0,False
60,0,"{'mechanical': 0, 'ebike': 0}",2,18,0,1,1,1,1568836750,False,IN_SERVICE,060 - 25 De Mayo,20,-34.601650899999996,-58.371079,2019-09-18 17:02:49.013564-03:00,2019-09-18 16:59:10,3,False
62,0,"{'mechanical': 0, 'ebike': 0}",0,20,0,1,1,1,1568836824,False,IN_SERVICE,062 - Córdoba,20,-34.5985102,-58.376850100000006,2019-09-18 17:02:49.013564-03:00,2019-09-18 17:00:24,2,False
63,0,"{'mechanical': 0, 'ebike': 0}",6,14,0,1,1,1,1568836863,False,IN_SERVICE,063 - Reconquista,20,-34.5987657,-58.3728605,2019-09-18 17:02:49.013564-03:00,2019-09-18 17:01:03,1,False
64,1,"{'mechanical': 1, 'ebike': 0}",3,16,0,1,1,1,1568836741,False,IN_SERVICE,064 - RIOBAMBA,20,-34.5936508,-58.394108700000004,2019-09-18 17:02:49.013564-03:00,2019-09-18 16:59:01,3,False
65,1,"{'mechanical': 1, 'ebike': 0}",1,18,0,1,1,1,1568836884,False,IN_SERVICE,065 - Julián Álvarez,20,-34.5873124,-58.415787300000005,2019-09-18 17:02:49.013564-03:00,2019-09-18 17:01:24,1,False
66,0,"{'mechanical': 0, 'ebike': 0}",0,20,0,1,1,1,1568836757,False,IN_SERVICE,066 - Billinghurst,20,-34.5945475,-58.4138713,2019-09-18 17:02:49.013564-03:00,2019-09-18 16:59:17,3,False
68,1,"{'mechanical': 1, 'ebike': 0}",1,18,0,1,1,1,1568836739,False,IN_SERVICE,068 - Rivarola,20,-34.6065099,-58.385434,2019-09-18 17:02:49.013564-03:00,2019-09-18 16:58:59,3,False
69,0,"{'mechanical': 0, 'ebike': 0}",3,13,0,1,1,1,1568836874,False,IN_SERVICE,069 - Ecuador,16,-34.5961006,-58.4046092,2019-09-18 17:02:49.013564-03:00,2019-09-18 17:01:14,1,False
70,0,"{'mechanical': 0, 'ebike': 0}",3,17,0,1,1,1,1568836885,False,IN_SERVICE,070 - ARAOZ,20,-34.5926862,-58.4260597,2019-09-18 17:02:49.013564-03:00,2019-09-18 17:01:25,1,False
71,0,"{'mechanical': 0, 'ebike': 0}",1,29,0,1,1,1,1568836753,False,IN_SERVICE,071 - CERRITO,30,-34.60266729999999,-58.3833559,2019-09-18 17:02:49.013564-03:00,2019-09-18 16:59:13,3,False
72,0,"{'mechanical': 0, 'ebike': 0}",2,16,0,1,1,1,1568836805,False,IN_SERVICE,072 - Venezuela,18,-34.613542100000004,-58.374663500000004,2019-09-18 17:02:49.013564-03:00,2019-09-18 17:00:05,2,False
73,0,"{'mechanical': 0, 'ebike': 0}",6,10,0,1,1,1,1568836696,False,IN_SERVICE,073 - Ruy Díaz de Guzmán,16,-34.6306814,-58.3718235,2019-09-18 17:02:49.013564-03:00,2019-09-18 16:58:16,4,False
74,0,"{'mechanical': 0, 'ebike': 0}",0,24,0,1,1,1,1568836721,False,IN_SERVICE,074 - INSTITUTO  LELOIR,24,-34.6043825,-58.4346338,2019-09-18 17:02:49.013564-03:00,2019-09-18 16:58:41,4,False
75,0,"{'mechanical': 0, 'ebike': 0}",2,18,0,1,1,1,1568836733,False,IN_SERVICE,075 - Plaza Primero de Mayo,20,-34.612297600000005,-58.39898710000001,2019-09-18 17:02:49.013564-03:00,2019-09-18 16:58:53,3,False
76,0,"{'mechanical': 0, 'ebike': 0}",3,17,1,1,1,1,1568836875,False,IN_SERVICE,076 - Ayacucho,20,-34.6074084,-58.3950548,2019-09-18 17:02:49.013564-03:00,2019-09-18 17:01:15,1,False
77,0,"{'mechanical': 0, 'ebike': 0}",4,16,1,1,1,1,1568836897,False,IN_SERVICE,077 - SARANDI,20,-34.6116273,-58.39473670000001,2019-09-18 17:02:49.013564-03:00,2019-09-18 17:01:37,1,False
78,1,"{'mechanical': 1, 'ebike': 0}",0,19,0,1,1,1,1568836963,False,IN_SERVICE,078 - SUIPACHA Y ARROYO,20,-34.5910737,-58.3799953,2019-09-18 17:02:49.013564-03:00,2019-09-18 17:02:43,0,False
79,0,"{'mechanical': 0, 'ebike': 0}",0,30,0,1,1,1,1568836844,False,IN_SERVICE,079 - AZUCENA VILLAFLOR,30,-34.61189,-58.36393,2019-09-18 17:02:49.013564-03:00,2019-09-18 17:00:44,2,False
80,0,"{'mechanical': 0, 'ebike': 0}",1,15,0,1,1,1,1568836935,False,IN_SERVICE,080 - DOBLAS,16,-34.624435,-58.43037660000001,2019-09-18 17:02:49.013564-03:00,2019-09-18 17:02:15,0,False
82,0,"{'mechanical': 0, 'ebike': 0}",0,20,0,1,1,1,1568836779,False,IN_SERVICE,082 - HOSPITAL ITALIANO,20,-34.6078917,-58.4263947,2019-09-18 17:02:49.013564-03:00,2019-09-18 16:59:39,3,False
83,0,"{'mechanical': 0, 'ebike': 0}",6,14,0,1,1,1,1568836904,False,IN_SERVICE,083 - Paraná,20,-34.603269,-58.3893728,2019-09-18 17:02:49.013564-03:00,2019-09-18 17:01:44,1,False
84,0,"{'mechanical': 0, 'ebike': 0}",7,13,1,1,1,1,1568836965,False,IN_SERVICE,084 - Lavalle,20,-34.602320299999995,-58.395514399999996,2019-09-18 17:02:49.013564-03:00,2019-09-18 17:02:45,0,False
85,0,"{'mechanical': 0, 'ebike': 0}",1,19,0,1,1,1,1568836841,False,IN_SERVICE,085 - AGUERO,20,-34.5948057,-58.4091784,2019-09-18 17:02:49.013564-03:00,2019-09-18 17:00:41,2,False
86,5,"{'mechanical': 5, 'ebike': 0}",1,14,0,1,1,1,1568835706,False,IN_SERVICE,086 - SAAVEDRA,20,-34.6212681,-58.401680799999994,2019-09-18 17:02:49.013564-03:00,2019-09-18 16:41:46,21,True
87,1,"{'mechanical': 1, 'ebike': 0}",2,13,1,1,1,1,1568836772,False,IN_SERVICE,087 - Guayaquil,16,-34.619845,-58.4314942,2019-09-18 17:02:49.013564-03:00,2019-09-18 16:59:32,3,False
88,1,"{'mechanical': 1, 'ebike': 0}",2,17,0,1,1,1,1568836718,False,IN_SERVICE,088 - MISIONES,20,-34.612575,-58.40435600000001,2019-09-18 17:02:49.013564-03:00,2019-09-18 16:58:38,4,False
89,0,"{'mechanical': 0, 'ebike': 0}",1,19,0,1,1,1,1568836952,False,IN_SERVICE,089 - Cabello,20,-34.5825475,-58.405667099999995,2019-09-18 17:02:49.013564-03:00,2019-09-18 17:02:32,0,False
90,0,"{'mechanical': 0, 'ebike': 0}",1,19,0,1,1,1,1568836930,False,IN_SERVICE,090 - GUTIERREZ,20,-34.5866324,-58.39987489999999,2019-09-18 17:02:49.013564-03:00,2019-09-18 17:02:10,0,False
91,1,"{'mechanical': 1, 'ebike': 0}",3,16,1,1,1,1,1568836954,False,IN_SERVICE,091 - Pasco,20,-34.6174482,-58.397602,2019-09-18 17:02:49.013564-03:00,2019-09-18 17:02:34,0,False
92,8,"{'mechanical': 8, 'ebike': 0}",0,12,0,1,1,1,1568834763,False,IN_SERVICE,092 - Salcedo,20,-34.6316444,-58.40533860000001,2019-09-18 17:02:49.013564-03:00,2019-09-18 16:26:03,36,True
93,0,"{'mechanical': 0, 'ebike': 0}",1,19,0,1,1,1,1568836873,False,IN_SERVICE,093 - CARLOS CALVO,20,-34.620798,-58.3944635,2019-09-18 17:02:49.013564-03:00,2019-09-18 17:01:13,1,False
94,0,"{'mechanical': 0, 'ebike': 0}",0,30,0,1,1,1,1568836866,False,IN_SERVICE,094 - GÚZMAN,30,-34.591511,-58.449652,2019-09-18 17:02:49.013564-03:00,2019-09-18 17:01:06,1,False
95,0,"{'mechanical': 0, 'ebike': 0}",6,10,0,1,1,1,1568836802,False,IN_SERVICE,095 - ESMERALDA,16,-34.60211210000001,-58.37816779999999,2019-09-18 17:02:49.013564-03:00,2019-09-18 17:00:02,2,False
96,0,"{'mechanical': 0, 'ebike': 0}",0,20,0,1,1,1,1568836775,False,IN_SERVICE,096 - Carlos Gardel,20,-34.6027814,-58.4116586,2019-09-18 17:02:49.013564-03:00,2019-09-18 16:59:35,3,False
98,0,"{'mechanical': 0, 'ebike': 0}",3,13,0,1,1,1,1568836730,False,IN_SERVICE,098 - Belgrano y roca,16,-34.6127689,-58.3769407,2019-09-18 17:02:49.013564-03:00,2019-09-18 16:58:50,3,False
99,0,"{'mechanical': 0, 'ebike': 0}",2,18,0,1,1,1,1568836701,False,IN_SERVICE,099 - Malabia,20,-34.596096100000004,-58.435407999999995,2019-09-18 17:02:49.013564-03:00,2019-09-18 16:58:21,4,False
101,0,"{'mechanical': 0, 'ebike': 0}",0,20,0,1,1,1,1568836959,False,IN_SERVICE,101 - Fitz Roy,20,-34.5891857,-58.4424397,2019-09-18 17:02:49.013564-03:00,2019-09-18 17:02:39,0,False
102,0,"{'mechanical': 0, 'ebike': 0}",0,12,0,1,1,1,1568836852,False,IN_SERVICE,102 - ROSETI,12,-34.5864287,-58.445819900000004,2019-09-18 17:02:49.013564-03:00,2019-09-18 17:00:52,1,False
104,1,"{'mechanical': 1, 'ebike': 0}",2,27,0,1,1,1,1568836954,False,IN_SERVICE,104 - Federico Lacroze,30,-34.587617,-58.455212,2019-09-18 17:02:49.013564-03:00,2019-09-18 17:02:34,0,False
105,0,"{'mechanical': 0, 'ebike': 0}",1,15,0,1,1,1,1568836870,False,IN_SERVICE,105 - 15 DE NOVIEMBRE,16,-34.6340844,-58.4008662,2019-09-18 17:02:49.013564-03:00,2019-09-18 17:01:10,1,False
106,0,"{'mechanical': 0, 'ebike': 0}",4,16,2,1,1,1,1568836740,False,IN_SERVICE,106 - RINCÓN,20,-34.6152509,-58.3958827,2019-09-18 17:02:49.013564-03:00,2019-09-18 16:59:00,3,False
107,0,"{'mechanical': 0, 'ebike': 0}",2,14,0,1,1,1,1568836802,False,IN_SERVICE,107 - HOSPITAL GARRAHAN,16,-34.630373999999996,-58.395852000000005,2019-09-18 17:02:49.013564-03:00,2019-09-18 17:00:02,2,False
110,0,"{'mechanical': 0, 'ebike': 0}",1,19,0,1,1,1,1568836852,False,IN_SERVICE,110 - Guardia Vieja,20,-34.601738,-58.415434,2019-09-18 17:02:49.013564-03:00,2019-09-18 17:00:52,1,False
111,0,"{'mechanical': 0, 'ebike': 0}",2,28,0,1,1,1,1568836938,False,IN_SERVICE,111 - MACACHA GUEMES,30,-34.605487700000005,-58.364685800000004,2019-09-18 17:02:49.013564-03:00,2019-09-18 17:02:18,0,False
112,0,"{'mechanical': 0, 'ebike': 0}",2,14,0,1,1,1,1568836845,False,IN_SERVICE,112 - 9 de Julio,16,-34.612075,-58.380384,2019-09-18 17:02:49.013564-03:00,2019-09-18 17:00:45,2,False
114,0,"{'mechanical': 0, 'ebike': 0}",1,29,0,1,1,1,1568836762,False,IN_SERVICE,114 - DELLA PAOLERA,30,-34.5949745,-58.3722554,2019-09-18 17:02:49.013564-03:00,2019-09-18 16:59:22,3,False
115,0,"{'mechanical': 0, 'ebike': 0}",3,13,0,1,1,1,1568836912,False,IN_SERVICE,115 - QUINTANA,16,-34.587800099999995,-58.39083620000001,2019-09-18 17:02:49.013564-03:00,2019-09-18 17:01:52,0,False
116,0,"{'mechanical': 0, 'ebike': 0}",5,7,1,1,1,1,1568836806,False,IN_SERVICE,116 - HOSPITAL ALEMÁN,12,-34.5921708,-58.4025894,2019-09-18 17:02:49.013564-03:00,2019-09-18 17:00:06,2,False
117,0,"{'mechanical': 0, 'ebike': 0}",3,13,0,1,1,1,1568836871,False,IN_SERVICE,117 - HUMBERTO 1°,16,-34.620100799999996,-58.3741759,2019-09-18 17:02:49.013564-03:00,2019-09-18 17:01:11,1,False
118,0,"{'mechanical': 0, 'ebike': 0}",3,17,0,1,1,1,1568836716,False,IN_SERVICE,118 - MEXICO,20,-34.6170196,-58.402653099999995,2019-09-18 17:02:49.013564-03:00,2019-09-18 16:58:36,4,False
119,1,"{'mechanical': 1, 'ebike': 0}",2,17,0,1,1,1,1568836947,False,IN_SERVICE,119 - EMILIO MITRE,20,-34.588560799999996,-58.397329299999996,2019-09-18 17:02:49.013564-03:00,2019-09-18 17:02:27,0,False
120,1,"{'mechanical': 1, 'ebike': 0}",7,12,0,1,1,1,1568836806,False,IN_SERVICE,120 - HOSPITAL RAMOS MEJIA,20,-34.617509000000005,-58.409287600000006,2019-09-18 17:02:49.013564-03:00,2019-09-18 17:00:06,2,False
121,0,"{'mechanical': 0, 'ebike': 0}",10,10,0,1,1,1,1568836809,False,IN_SERVICE,121 - YATAY,20,-34.601173200000005,-58.4285093,2019-09-18 17:02:49.013564-03:00,2019-09-18 17:00:09,2,False
122,0,"{'mechanical': 0, 'ebike': 0}",3,17,0,1,1,1,1568836639,False,IN_SERVICE,122 - COSTA RICA,20,-34.5916569,-58.4204199,2019-09-18 17:02:49.013564-03:00,2019-09-18 16:57:19,5,False
124,0,"{'mechanical': 0, 'ebike': 0}",2,18,0,1,1,1,1568836798,False,IN_SERVICE,124 - UGARTECHE,20,-34.580538,-58.411965,2019-09-18 17:02:49.013564-03:00,2019-09-18 16:59:58,2,False
126,1,"{'mechanical': 1, 'ebike': 0}",3,12,0,1,1,1,1568836893,False,IN_SERVICE,126 - Ministerio de Justicia y Seguridad,16,-34.640267200000004,-58.3692243,2019-09-18 17:02:49.013564-03:00,2019-09-18 17:01:33,1,False
127,4,"{'mechanical': 4, 'ebike': 0}",0,12,0,1,1,1,1568836561,False,IN_SERVICE,127 - SANTOS DUMONT Y OTERO,16,-34.5923884,-58.453077,2019-09-18 17:02:49.013564-03:00,2019-09-18 16:56:01,6,False
128,2,"{'mechanical': 2, 'ebike': 0}",5,13,0,1,1,1,1568836807,False,IN_SERVICE,128 - PARQUE DEL BAJO,20,-34.6041138,-58.3689118,2019-09-18 17:02:49.013564-03:00,2019-09-18 17:00:07,2,False
130,0,"{'mechanical': 0, 'ebike': 0}",0,40,1,1,1,1,1568836922,False,IN_SERVICE,130 - RETIRO II,40,-34.592105600000004,-58.3745419,2019-09-18 17:02:49.013564-03:00,2019-09-18 17:02:02,0,False
131,0,"{'mechanical': 0, 'ebike': 0}",2,14,0,1,1,1,1568836774,False,IN_SERVICE,131- HOSPITAL DE CLÍNICAS,16,-34.59840429999999,-58.399015799999994,2019-09-18 17:02:49.013564-03:00,2019-09-18 16:59:34,3,False
132,0,"{'mechanical': 0, 'ebike': 0}",3,9,0,1,1,1,1568836832,False,IN_SERVICE,132 - CORRIENTES,12,-34.6033685,-58.372763,2019-09-18 17:02:49.013564-03:00,2019-09-18 17:00:32,2,False
134,2,"{'mechanical': 2, 'ebike': 0}",1,17,0,1,1,1,1568836728,False,IN_SERVICE,134 - DON BOSCO,20,-34.611801299999996,-58.4150532,2019-09-18 17:02:49.013564-03:00,2019-09-18 16:58:48,4,False
135,0,"{'mechanical': 0, 'ebike': 0}",1,19,0,1,1,1,1568836923,False,IN_SERVICE,135 - MARCELO T. DE ALVEAR,20,-34.5972818,-58.3787856,2019-09-18 17:02:49.013564-03:00,2019-09-18 17:02:03,0,False
137,1,"{'mechanical': 1, 'ebike': 0}",6,13,2,1,1,1,1568836751,False,IN_SERVICE,137 - AZOPARDO Y CHILE,20,-34.6155977,-58.367492299999995,2019-09-18 17:02:49.013564-03:00,2019-09-18 16:59:11,3,False
138,1,"{'mechanical': 1, 'ebike': 0}",6,5,2,1,1,1,1568836749,False,IN_SERVICE,138 - Hospital Britanico,12,-34.6353595,-58.38767239999999,2019-09-18 17:02:49.013564-03:00,2019-09-18 16:59:09,3,False
141,0,"{'mechanical': 0, 'ebike': 0}",1,19,0,1,1,1,1568836746,False,IN_SERVICE,141 - SOLIS Y ALSINA,20,-34.6115231,-58.3904968,2019-09-18 17:02:49.013564-03:00,2019-09-18 16:59:06,3,False
143,1,"{'mechanical': 1, 'ebike': 0}",1,18,0,1,1,1,1568836905,False,IN_SERVICE,143 - BILLINGHURST Y VALENTÍN GOMEZ,20,-34.604709,-58.415806999999994,2019-09-18 17:02:49.013564-03:00,2019-09-18 17:01:45,1,False
144,0,"{'mechanical': 0, 'ebike': 0}",5,15,0,1,1,1,1568836733,False,IN_SERVICE,144 - PUEYRREDÓN,20,-34.6018744,-58.4060944,2019-09-18 17:02:49.013564-03:00,2019-09-18 16:58:53,3,False
146,0,"{'mechanical': 0, 'ebike': 0}",0,20,0,1,1,1,1568836900,False,IN_SERVICE,146 - Hospital Francés,20,-34.6221118,-58.4078419,2019-09-18 17:02:49.013564-03:00,2019-09-18 17:01:40,1,False
148,0,"{'mechanical': 0, 'ebike': 0}",1,27,1,1,1,1,1568836751,False,IN_SERVICE,323 - Parque Avellaneda II,28,-34.6446524,-58.4843274,2019-09-18 17:02:49.013564-03:00,2019-09-18 16:59:11,3,False
